[{"id":"A10058935","name":"หมอชิต2","lat":13.777817683263743,"lon":100.62206266909874},{"id":"A10156835","name":"ท่าเรือสะพานมิตรมหาดไทย","lat":13.762111415785922,"lon":100.62369748950005},{"id":"A10026513","name":"5 Mahat Thai Pier","lat":13.7620121240616,"lon":100.623650550842},{"id":"A10026514","name":"6 Ramkhatamhaeng Pier","lat":13.7614864110947,"lon":100.618881583214},{"id":"A10319843","name":"ท่าเรือมหาวิทยาลัยรามคำแหง","lat":13.761470533829673,"lon":100.61829954385757},{"id":"A10026512","name":"4 Wat Klang Pier","lat":13.7634766101837,"lon":100.633692741394},{"id":"A10026515","name":"7 Wat Thep Lila","lat":13.7598663568497,"lon":100.613898038864},{"id":"A10026517","name":"8 ท่าเรือรามคำแหง29","lat":13.7576884031296,"lon":100.611636936665},{"id":"A10026545","name":"ท่าเรือ เดอะมอลล์บางกะปิ","lat":13.7646272778511,"lon":100.643246769905},{"id":"A10026511","name":"ท่าเรือ เดอะมอลล์ บางกะปิ","lat":13.7646782398224,"lon":100.643418431282},{"id":"A10026518","name":"9 The Mall Pier","lat":13.7545824050903,"lon":100.608270764351},{"id":"A10082340","name":"ท่าเรือเดอะมอลล์ 3","lat":13.754246161739989,"lon":100.6078214943409},{"id":"A10026546","name":"ท่าเรือ บางกะปิ","lat":13.7650349736214,"lon":100.646781921387},{"id":"A10026510","name":"2 Bang Kapi Pier","lat":13.7651717662811,"lon":100.647511482239},{"id":"A10026547","name":"ท่าเรือ วัดศรีบุญเรือง","lat":13.7672129273415,"lon":100.651658177376},{"id":"A10026509","name":"1 ท่าเรือวัดศรีบุญเรือง","lat":13.7674033641815,"lon":100.651808381081},{"id":"A10002203","name":"สถานีแอร์พอร์ตเรลลิงก์ รามคำแหง","lat":13.742989713240695,"lon":100.60005649924278},{"id":"A00131313","name":"สถานีรถไฟหัวหมาก","lat":13.738233469953819,"lon":100.63976258039474},{"id":"A10122563","name":"ท่าเรือแอร์พอร์ตลิงค์ รามคำแหง (ท่าเรือราม1)","lat":13.74330496890173,"lon":100.59892728924751},{"id":"A00131157","name":"ไม่มีท่าเรือ","lat":13.7889879429052,"lon":100.589972430736},{"id":"A00131146","name":"ท่าเรือสะพานคลองตัน","lat":13.7420962190077,"lon":100.598163609572},{"id":"A10169742","name":"สถานีรถไฟฟ้าแอร์พอร์ตเรลลิงก์ หัวหมาก","lat":13.737991160809246,"lon":100.64501836895943},{"id":"A00131267","name":"สถานีรถไฟคลองตัน","lat":13.7441962063461,"lon":100.589528546749},{"id":"A00131147","name":"ท่าเรือชาญอิสระ","lat":13.7428753816436,"lon":100.58826458668},{"id":"A10026519","name":"12 Thong Lo Pier","lat":13.7432473897934,"lon":100.586003065109},{"id":"A00131976","name":"องค์การขนส่งมวลชนกรุงเทพ(ขสมก)","lat":13.8108569745118,"lon":100.650962025082},{"id":"A00131292","name":"สถานีรถไฟฟ้าใต้ดินห้วยขวาง (MRT) (BL18)","lat":13.7784594470084,"lon":100.573652187875},{"id":"A00131987","name":"องค์การขนส่งมวลชนกรุงเทพ","lat":13.7657245299547,"lon":100.572988250027},{"id":"A00131985","name":"องค์การขนส่งมวลชนกรุงเทพ (ขสมก, สนง. ใหญ่)","lat":13.7611125609524,"lon":100.573138478382},{"id":"A00131291","name":"สถานีรถไฟฟ้าใต้ดินสุทธิสาร (MRT) (BL17)","lat":13.7897069312454,"lon":100.574194242288},{"id":"A00131293","name":"สถานีรถไฟฟ้าใต้ดินศูนย์วัฒนธรรมแห่งประเทศไทย (MRT) (BL19)","lat":13.7662217079901,"lon":100.570281662101},{"id":"A00131986","name":"องค์การขนส่งมวลชนกรุงเทพ","lat":13.774988548872,"lon":100.569313042277},{"id":"A10026520","name":"13 Ban Don Mosque Pier","lat":13.7453985214233,"lon":100.575038194656},{"id":"A00131132","name":"ท่าเรือวัดใหม่ช่องลม","lat":13.7456783314059,"lon":100.574411201119},{"id":"A00131290","name":"สถานีรถไฟฟ้าใต้ดินรัชดาภิเษก (MRT) (BL16)","lat":13.798841957060052,"lon":100.57460904121399},{"id":"A00131131","name":"ท่าเรืออิตัลไทย","lat":13.7459649211775,"lon":100.57342740386},{"id":"A00131294","name":"สถานีรถไฟฟ้าใต้ดินพระราม 9 (MRT) (BL20)","lat":13.7582844190506,"lon":100.565453934916},{"id":"A00131309","name":"สถานีรถไฟฟ้าใต้ดินลาดพร้าว (MRT) (BL15)","lat":13.805919085996692,"lon":100.57384327054024},{"id":"A10006183","name":"สถานีรถไฟด่วนท่าอากาศยานสุวรรณภูมิ","lat":13.7536029052734,"lon":100.564030181122},{"id":"A10007389","name":"ท่าเรือประสานมิตร","lat":13.7472463608,"lon":100.565742589},{"id":"A00131295","name":"สถานีรถไฟฟ้าใต้ดินเพชรบุรี (MRT) (BL21)","lat":13.7492058898141,"lon":100.563444652109},{"id":"A10074577","name":"สถานีรถไฟฟ้าแอร์พอร์ตลิงค์ มักกะสัน","lat":13.751652574120618,"lon":100.5620844522206},{"id":"A00131258","name":"สถานีรถไฟฟ้าบีเอสเอกมัย (BTS) (E7)","lat":13.7195883130726,"lon":100.585075345075},{"id":"A10032474","name":"ท่าเรืออโศก","lat":13.7479126015657,"lon":100.563062117406},{"id":"A00131130","name":"ท่าเรืออโศก","lat":13.7479017525659,"lon":100.563026347265},{"id":"A00131255","name":"สถานีรถไฟฟ้าบีทีเอสพระโขนง (BTS) (E8)","lat":13.7151512733553,"lon":100.591308074455},{"id":"A00131982","name":"สถานีขนส่งสายตะวันออก (เอกมัย)","lat":13.719701128225,"lon":100.584049241891},{"id":"A00131259","name":"สถานีรถไฟฟ้าบีทีเอสทองหล่อ (BTS) (E6)","lat":13.7242244475687,"lon":100.578532679789},{"id":"A00131925","name":"สำนักงานขนส่งกรุงเทพสายตะวันออก (สำนักงานขนส่งเอกมัย)","lat":13.719371494554,"lon":100.584162700877},{"id":"A10006793","name":"สถานีแอร์พอร์ตเรลลิงก์ มักกะสัน","lat":13.751092430653607,"lon":100.5609056353569},{"id":"A00131260","name":"สถานีรถไฟฟ้าบีทีเอสพร้อมพงษ์ (BTS) (E5)","lat":13.7305015466376,"lon":100.569618383002},{"id":"A10026504","name":"ท่าเรือนานาชาติ","lat":13.7482738494873,"lon":100.559197068214},{"id":"A00131254","name":"สถานีรถไฟฟ้าบีทีเอสอ่อนนุช (BTS) (E9)","lat":13.705537711909635,"lon":100.60108780860901},{"id":"A00131296","name":"สถานีรถไฟฟ้าใต้ดินสุขุมวิท (MRT) (BL22)","lat":13.7376575447997,"lon":100.56152899942},{"id":"A00131261","name":"สถานีรถไฟฟ้าบีทีเอสอโศก (BTS) (E4)","lat":13.7371116571417,"lon":100.560322167686},{"id":"A10026508","name":"ท่าเรือนานาเหนือ","lat":13.7483355402946,"lon":100.553934574127},{"id":"A00131289","name":"สถานีรถไฟฟ้าใต้ดินพหลโยธิน (MRT) (BL14)","lat":13.8129369304161,"lon":100.561402234399},{"id":"A00131281","name":"สถานีรถไฟฟ้าบีทีเอสนานา (BTS) (E3)","lat":13.740505250849,"lon":100.555486382054},{"id":"A10000582","name":"Coca Cola Global Carnival","lat":13.8203198242187,"lon":100.565321856689},{"id":"A10002323","name":"สถานีรถไฟฟ้าบีทีเอสห้าแยกลาดพร้าว (BTS) (N9)","lat":13.81651874900992,"lon":100.56201070547104},{"id":"A10147819","name":"สถานีหมอชิต","lat":13.8025472528592,"lon":100.55381923913956},{"id":"A00457507","name":"สถานีรถไฟฟ้าบีทีเอสหมอชิต (BTS) (N8)","lat":13.8025574549785,"lon":100.553811145637},{"id":"A00457512","name":"สถานีรถไฟฟ้าใต้ดินจตุจักร (MRT) (BL13)","lat":13.8032360261437,"lon":100.553460614272},{"id":"A00457506","name":"สถานีรถไฟฟ้าบีทีเอสสะพานควาย (BTS) (N7)","lat":13.7937231441429,"lon":100.549708592907},{"id":"A00131959","name":"สำนักงานขนส่งเขตพื้นที่ 3","lat":13.6962676620264,"lon":100.608523417765},{"id":"A10002322","name":"สถานีรถไฟฟ้าบีทีเอสพหลโยธิน 24 (BTS) (N10)","lat":13.82298,"lon":100.56572},{"id":"A10002362","name":"สถานีรถไฟฟ้าบีทีเอสบางจาก (BTS) (E10)","lat":13.69668,"lon":100.60537},{"id":"A00132000","name":"ท่าปล่อยรถเมล์สาย 93","lat":13.7426081049503,"lon":100.695136201568},{"id":"A00131990","name":"องค์การขนส่งมวลชนกรุงเทพ เขตการเดินรถที่ 2","lat":13.8018821580077,"lon":100.694957881934},{"id":"A10002205","name":"สถานีแอร์พอร์ตเรลลิงก์ บ้านทับช้าง","lat":13.732886977711527,"lon":100.6907071173191},{"id":"A00131304","name":"สถานีรถไฟทับช้าง","lat":13.7328467770526,"lon":100.690875901516},{"id":"A10002321","name":"สถานีรถไฟฟ้าบีทีเอสรัชโยธิน (BTS) (N11)","lat":13.829553107741537,"lon":100.56976228952408},{"id":"A00131129","name":"ท่าเรือสะพานวิทยุ","lat":13.7481459315532,"lon":100.548081574816},{"id":"A00131286","name":"สถานีรถไฟฟ้าบีทีเอสอารีย์ (BTS) (N5)","lat":13.7804094030463,"lon":100.544892481365},{"id":"A00131280","name":"สถานีรถไฟฟ้าทีเอสเพลินจิต (BTS) (E2)","lat":13.7430821741426,"lon":100.548979916095},{"id":"A00457511","name":"สถานีรถไฟฟ้าใต้ดินกำแพงเพชร (MRT) (BL12)","lat":13.7982305700877,"lon":100.548110069145},{"id":"A00131297","name":"สถานีรถไฟฟ้าใต้ดินศูนย์ประชุมแห่งชาติสิริกิตต์ (MRT) (BL23)","lat":13.7227145645704,"lon":100.560267653539},{"id":"A00131980","name":"สถานีปล่อยรถคลองเตย","lat":13.7164440121868,"lon":100.565666720547},{"id":"A00131285","name":"สถานีรถไฟฟ้าบีทีเอสสนามเป้า (BTS) (N4)","lat":13.7726267615208,"lon":100.542124551575},{"id":"A10002320","name":"สถานีรถไฟฟ้าบีทีเอสเสนานิคม (BTS) (N12)","lat":13.836302454393099,"lon":100.5736394226551},{"id":"A00131128","name":"ท่าเรือชิดลม","lat":13.7487417829486,"lon":100.544459365328},{"id":"A10035889","name":"บริษัท สมบัติทัวร์ จำกัด วิภาวดี","lat":13.8219531827888,"lon":100.55748714597},{"id":"A10058428","name":"ท่ารถตู้สวนสันติภาพ","lat":13.763298734273702,"lon":100.54100966544127},{"id":"A10002201","name":"สถานีแอร์พอร์ตเรลลิงก์ ราชปรารภ","lat":13.7550392913818,"lon":100.542141371918},{"id":"A10002363","name":"สถานีรถไฟฟ้าบีทีเอสปุณณวิถี (BTS) (E11)","lat":13.689291063377103,"lon":100.6090821325779},{"id":"A10170204","name":"ท่ารถตู้ ใต้ทางด่วนขาเข้า","lat":13.76629,"lon":100.53953},{"id":"A10002316","name":"สถานีรถไฟฟ้าบีทีเอสมหาวิทยาลัยเกษตรศาสตร์ (BTS) (N13)","lat":13.842099730298964,"lon":100.5771142244339},{"id":"A10006713","name":"ท่ารถตู้อนุเสาวรีย์ชัยสมรภูมิ - อุทัยธานี","lat":13.7662891960144,"lon":100.539343634796},{"id":"A10100418","name":"ท่ารถตู้อนุเสาวรีย์ชัยสมรภูมิ - ดินแดง","lat":13.76511650349072,"lon":100.539311170578},{"id":"A10170199","name":"ท่ารถตู้ ใต้ทางด่วนขาออก","lat":13.76695,"lon":100.53907},{"id":"A10170203","name":"ท่ารถตู้ เกาะดินแดง","lat":13.76508,"lon":100.53897},{"id":"A10100421","name":"ท่ารถตู้อนุเสาวรีย์ชัยสมรภูมิ - ใต้ทางด่วน","lat":13.766854148204139,"lon":100.53883776068687},{"id":"A00131278","name":"สถานีรถไฟฟ้าบีทีเอสชิดลม (BTS) (E1)","lat":13.7441230525188,"lon":100.5431170472},{"id":"A10057861","name":"อู่รถสหพันธ์ร้อยเอ็ดทัวร์","lat":13.824879,"lon":100.557042},{"id":"A10026521","name":"22 Pratu Nam Pier (Inbound)","lat":13.7494969367981,"lon":100.541296005249},{"id":"A00457516","name":"สถานีขนส่งกรุงเทพสายเหนือและตะวันออกเฉียงเหนือ (หมอชิต2)","lat":13.8130232951461,"lon":100.548906300424},{"id":"A10035170","name":"Mochit 2 Transport Office","lat":13.8128683708523,"lon":100.548806176494},{"id":"A00457521","name":"สถานีขนส่งสายเหนือและตะวันออกเฉียงเหนือ","lat":13.8111500827314,"lon":100.547858149661},{"id":"A10100403","name":"ท่ารถตู้อนุเสาวรีย์ชัยสมรภูมิ - พญาไท","lat":13.763748783054554,"lon":100.53858429193497},{"id":"A10170200","name":"ท่ารถตู้ เกาะพญาไท","lat":13.7643,"lon":100.53853},{"id":"A00461286","name":"บริษัท ขนส่งจำกัด สถานีหมอชิต 2","lat":13.8132262370921,"lon":100.548912001677},{"id":"A00131298","name":"สถานีรถไฟฟ้าใต้ดินคลองเตย (MRT) (BL24)","lat":13.7222538610096,"lon":100.554057137589},{"id":"A00131127","name":"ท่าเรือประตูน้ำ","lat":13.749199650539838,"lon":100.5411659181118},{"id":"A10170198","name":"ท่ารถตู้ เกาะพหลโยธิน","lat":13.76559,"lon":100.53818},{"id":"A10100420","name":"ท่ารถตู้อนุเสาวรีย์ชัยสมรภูมิ - พหลโยธิน","lat":13.765749559956289,"lon":100.53782925009727},{"id":"A10100307","name":"ท่ารถตู้อนุเสาวรีย์ชัยสมรภูมิ - ทางไปเซ็นจูรี่","lat":13.763545578193067,"lon":100.53776621818542},{"id":"A10170202","name":"ท่ารถตู้ เกาะราชวิถี","lat":13.76464,"lon":100.53765},{"id":"A10170201","name":"ท่ารถตู้ ใต้BTS","lat":13.76313,"lon":100.53758},{"id":"A10100419","name":"ท่ารถตู้อนุเสาวรีย์ชัยสมรภูมิ - ราชวิถี","lat":13.764737450342396,"lon":100.53719222545624},{"id":"A10170197","name":"ท่ารถตู้ ฝั่งโรงหนังเซ็นจูรี่","lat":13.76222,"lon":100.53721},{"id":"A00131284","name":"สถานีรถไฟฟ้าบีทีเอสอนุสาวรีย์ชัยสมรภูมิ (BTS) (N3)","lat":13.7626688643739,"lon":100.537052265177},{"id":"A10009674","name":"รถตู้บริการ กรุงเทพ-ตราด-ขลุง-จันทบุรี Diamondbrain Travel","lat":13.7619907569885,"lon":100.536921073151},{"id":"A10125125","name":"คิวรถตู้อนเสาวรีย์(รางน้ำ)-โรบินสัน จันทบุรี","lat":13.761151394802347,"lon":100.5368623137474},{"id":"A00457510","name":"สถานีรถไฟฟ้าใต้ดินบางซื่อ (MRT) (BL11)","lat":13.8024918629606,"lon":100.540894216319},{"id":"A10502551","name":"สถานีรถไฟฟ้าบีทีเอสกรมป่าไม้ (BTS) (N14)","lat":13.850331822076978,"lon":100.58185368776321},{"id":"A00457509","name":"ชุมทางบางซื่อ 2 (สายใต้)","lat":13.8047643960136,"lon":100.540272187507},{"id":"A00457508","name":"ชุมทางบางซื่อ (สายเหนือ)","lat":13.8015298769481,"lon":100.538964265445},{"id":"A00457505","name":"สถานีรถไฟบางซื่อ","lat":13.8041084774304,"lon":100.53986075981},{"id":"A00131277","name":"สถานีรถไฟฟ้าบีทีเอสราชดำริ (BTS) (S1)","lat":13.7394625379168,"lon":100.539490213905},{"id":"A10002200","name":"สถานีแอร์พอร์ตเรลลิงก์ พญาไท","lat":13.75663,"lon":100.53474},{"id":"A00131299","name":"สถานีรถไฟฟ้าใต้ดินลุมพินี (MRT) (BL25)","lat":13.7256633501819,"lon":100.545597541788},{"id":"A00457519","name":"ลานจอดรถโดยสาร","lat":13.8216995537818,"lon":100.547915970847},{"id":"A00131283","name":"สถานีรถไฟฟ้าบีทีเอสพญาไท (BTS) (N2)","lat":13.7569778177834,"lon":100.533863883047},{"id":"A10013083","name":"นครชัยแอร์ - ศูนย์บริการลูกค้ากรุงเทพฯ","lat":13.8281127548218,"lon":100.552088881683},{"id":"A10124309","name":"ที่หยุดรถพญาไท","lat":13.75688397968045,"lon":100.5331387365005},{"id":"A10107533","name":"ท่ารถตู้ธนาคารเกียรตินาคิน","lat":13.767345219370116,"lon":100.53146302700043},{"id":"A10502552","name":"สถานีรถไฟฟ้าบีทีเอสบางบัว (BTS) (N15)","lat":13.85599723814649,"lon":100.58519572019577},{"id":"A10107532","name":"ท่าจอดรถตู้โดยสาร บขส","lat":13.767373876011083,"lon":100.53114384412766},{"id":"A10002364","name":"สถานีรถไฟฟ้าบีทีเอสอุดมสุข (BTS) (E12)","lat":13.679885761865455,"lon":100.60952335596085},{"id":"A00131273","name":"สถานีรถไฟฟ้าบีทีเอสสยาม (BTS) (CS)","lat":13.7456201431634,"lon":100.533965721469},{"id":"A00131158","name":"ท่าเรือบางบัว","lat":13.857926138414,"lon":100.586730177091},{"id":"A00131274","name":"สถานีรถไฟสามเสน","lat":13.7791265389119,"lon":100.5299215509},{"id":"A00131282","name":"สถานีรถไฟฟ้าบีทีเอสราชเทวี (BTS) (N1)","lat":13.7519237256565,"lon":100.531573945607},{"id":"A10128908","name":"ท่ารถประจำทางสาย 538 (ราชเทวี)","lat":13.759995977621433,"lon":100.53011789917946},{"id":"A10026505","name":"Pier Hua Chang / Ratchathewi Pier","lat":13.7491589784622,"lon":100.530652999878},{"id":"A00131989","name":"กองเดินรถที่ 3 ขนส่งมวลชนกรุงเทพ","lat":13.6787365379324,"lon":100.648280227026},{"id":"A00131300","name":"สถานีรถไฟฟ้าใต้ดินสีลม (MRT) (BL26)","lat":13.729400748968802,"lon":100.53670540452003},{"id":"A00131279","name":"สถานีรถไฟฟ้าบีทีเอสสนามกีฬาแห่งชาติ (BTS) (W1)","lat":13.7464659967818,"lon":100.529091435281},{"id":"A00131272","name":"สถานีรถไฟบางเขน","lat":13.8469395350389,"lon":100.560664763916},{"id":"A10026523","name":"24 Ban Khrua Nuea Pier","lat":13.7497973442078,"lon":100.527589917183},{"id":"A10177381","name":"สถานีรถไฟฟ้าเตาปูน (MRT) (BL10) (PP16)","lat":13.80629025816026,"lon":100.5308273434639},{"id":"A10010096","name":"ร้าน Subway Franchise","lat":13.7288252449036,"lon":100.534324322891},{"id":"A00131276","name":"สถานีรถไฟฟ้าบีทีเอสศาลาแดง (BTS) (S2)","lat":13.7285153047917,"lon":100.534264076405},{"id":"A00457520","name":"กองเดินรถที่ 3 เขตการเดินรถที่ 2","lat":13.8180380424421,"lon":100.535165848163},{"id":"A00457945","name":"Train","lat":13.8062586588,"lon":100.529865209},{"id":"A10502553","name":"สถานีรถไฟฟ้าบีทีเอสกรมทหารราบที่11 (BTS) (N16)","lat":13.86748650157604,"lon":100.59196025133133},{"id":"A10026522","name":"25 Charoen Phon Pier","lat":13.7497892975807,"lon":100.524282753468},{"id":"A00131301","name":"สถานีรถไฟฟ้าใต้ดินสามย่าน (MRT) (BL27)","lat":13.732403650887383,"lon":100.52980676293373},{"id":"A10002194","name":"สถานีรถไฟและรถไฟฟ้าบางซ่อน (สายสีแดงอ่อน)","lat":13.822149808269463,"lon":100.53438588493323},{"id":"A00131988","name":"สำนักงานเขตการเดินรถที่ 1","lat":13.8694551816884,"lon":100.592639020884},{"id":"A10177379","name":"สถานีรถไฟฟ้าบางซ่อน (MRT) (PP15)","lat":13.820154743008265,"lon":100.53250104188919},{"id":"A00131257","name":"สถานีรถไฟวัดลานบุญ","lat":13.7297877856648,"lon":100.718853365701},{"id":"A10002365","name":"สถานีรถไฟฟ้าบีทีเอสบางนา (BTS) (E13)","lat":13.668074526816628,"lon":100.60469806194305},{"id":"A00131262","name":"สถานีรถไฟฟ้าบีทีเอสช่องนนทรี (BTS) (S3)","lat":13.7237667245947,"lon":100.529331651934},{"id":"A10011693","name":"สถานี BRT สาทร","lat":13.72129,"lon":100.530616},{"id":"A10361630","name":"สถานี BRT สาทร","lat":13.721376,"lon":100.530512},{"id":"A10361629","name":"สถานี BRT อาคารสงเคราะห์","lat":13.717313,"lon":100.532579},{"id":"A10011692","name":"สถานี BRT อาคารสงเคราะห์","lat":13.717165,"lon":100.532644},{"id":"A00131161","name":"ท่าเรือสาธารณะช่องนนทรีกรมเจ้าท่า","lat":13.6948531927541,"lon":100.54998552451},{"id":"A10361628","name":"สถานี BRT เทคนิคกรุงเทพ","lat":13.712453,"lon":100.535013},{"id":"A10011691","name":"สถานี BRT เทคนิคกรุงเทพ","lat":13.712250250560501,"lon":100.53506389260292},{"id":"A10502554","name":"สถานีรถไฟฟ้าบีทีเอสวัดพระศรีมหาธาตุ (BTS) (N17)","lat":13.87522034096515,"lon":100.5968365073204},{"id":"A00131978","name":"อู่รถโดยสารไมโครบัส","lat":13.8525842611228,"lon":100.693509313929},{"id":"A10361627","name":"สถานี BRT ถนนจันทน์","lat":13.704791,"lon":100.538943},{"id":"A10011688","name":"สถานี BRT ถนนจันทน์","lat":13.704628273246495,"lon":100.53898259997368},{"id":"A10002224","name":"สถานีรถไฟฟ้าบางโพ (MRT) (BL09)","lat":13.806395749088388,"lon":100.52104532718658},{"id":"A10361626","name":"สถานี BRT นราราม3","lat":13.696448,"lon":100.54528},{"id":"A10011686","name":"สถานี BRT นราราม 3","lat":13.696314172967194,"lon":100.54529383778572},{"id":"A10604970","name":"สถานีรถไฟฟ้าบีทีเอสเซนต์หลุยส์ (BTS) (S4)","lat":13.720851713110491,"lon":100.52698776125908},{"id":"A10026507","name":"16 Bobae Pier","lat":13.7535712122917,"lon":100.515718460083},{"id":"A00458848","name":"ท่าเรือเกียกกาย","lat":13.7987070759548,"lon":100.5172457247},{"id":"A10101375","name":"ท่าเรือด่วนบางโพ","lat":13.806315002950145,"lon":100.51908195018768},{"id":"A10026554","name":"N22 Bang Pho ( Po ) Pier","lat":13.8088381290436,"lon":100.518703758717},{"id":"A10068915","name":"ท่าเรือข้ามฟากแม่น้ำเจ้าพระยา - วัดบางโพ","lat":13.808871514416051,"lon":100.51863534839438},{"id":"A10028065","name":"โบ๋เบ๋","lat":13.7520011315548,"lon":100.513840866143},{"id":"A00131306","name":"สถานีรถไฟหัวลำโพง","lat":13.738645,"lon":100.516702},{"id":"A00131302","name":"สถานีรถไฟฟ้าใต้ดินหัวลำโพง (MRT) (BL28)","lat":13.737472670507735,"lon":100.51698312163353},{"id":"A10002366","name":"สถานีรถไฟฟ้าบีทีเอสแบริ่ง (BTS) (E14)","lat":13.66115091834852,"lon":100.60187503695488},{"id":"A10502555","name":"สถานีรถไฟฟ้าบีทีเอสพหลโยธิน 59 (BTS) (N18)","lat":13.882506058819079,"lon":100.6008169054985},{"id":"A10502546","name":"สถานีรถไฟฟ้าวงศ์สว่าง (MRT) (PP14)","lat":13.829941171178357,"lon":100.52646741271019},{"id":"A00131109","name":"ท่าเรือราชินีบน","lat":13.7910361711766,"lon":100.511885751067},{"id":"A00132001","name":"กองการเดินรถที่1 เขตการเดินรถที่ 2","lat":13.8150774636109,"lon":100.728771439661},{"id":"A00457503","name":"ท่าเรือวัดสร้อยทอง","lat":13.8127330004277,"lon":100.517245501985},{"id":"A10032388","name":"N19 สมาคมสโมสรกรมชลประทาน","lat":13.7894775182805,"lon":100.510536418275},{"id":"A10001907","name":"สถานีขนส่ง","lat":13.77984375,"lon":100.7376453125},{"id":"A10011484","name":"คอนซูลบริการ กรุงเทพฯ - ชลบุรี","lat":13.740806,"lon":100.513411},{"id":"A00131263","name":"สถานีรถไฟฟ้าบีทีเอสสุรศักดิ์ (BTS) (S5)","lat":13.7193644975485,"lon":100.521457828925},{"id":"A10011488","name":"คอนซูลบริการ กรุงเทพฯ - ชลบุรี","lat":13.740938,"lon":100.512768},{"id":"A10026553","name":"N19 Royal Irrigation Dept Pier","lat":13.7886786460876,"lon":100.509704947472},{"id":"A00131108","name":"ท่าเรือพายัพ","lat":13.7874678001018,"lon":100.508407781093},{"id":"A10137370","name":"สะพานข้ามถนนสุวินทวงศ์ ถนนเชื่อมสัมพันธ์","lat":13.81851777135884,"lon":100.73025226593018},{"id":"A10002223","name":"สถานีรถไฟฟ้าบางอ้อ (MRT) (BL08)","lat":13.79889,"lon":100.50976},{"id":"A10002230","name":"สถานีรถไฟฟ้าใต้ดินวัดมังกร (MRT) (BL29)","lat":13.74232142194484,"lon":100.50967946648598},{"id":"A10107687","name":"เรือเจ้าพระยาครุยส์","lat":13.73047424196696,"lon":100.51335141062737},{"id":"A10502556","name":"สถานีรถไฟฟ้าบีทีเอสสายหยุด (BTS) (N19)","lat":13.888354257098058,"lon":100.60422599315643},{"id":"A00131138","name":"ท่าเรือริเวอร์ซิตี้","lat":13.7302807509688,"lon":100.512902340148},{"id":"A00131137","name":"ท่าเรือกรมเจ้าท่า","lat":13.7325204638451,"lon":100.51202752133},{"id":"A00131139","name":"ท่าเรือสี่พระยา","lat":13.7294968739709,"lon":100.513104901881},{"id":"A10000030","name":"N4 ท่าเรือกรมเจ้าท่า","lat":13.7324647792861,"lon":100.512006620391},{"id":"A10000029","name":"ท่าเรือสี่พระยา","lat":13.728548261973174,"lon":100.51346100272576},{"id":"A10026506","name":"27 ท่าเรือผ่านฟ้า","lat":13.7556365132332,"lon":100.506309270859},{"id":"A00131141","name":"ท่าเรือรอยัลออคิด","lat":13.7283830124229,"lon":100.51340260575},{"id":"A00131142","name":"ท่าเรือวัดม่วงแค","lat":13.7262721405423,"lon":100.513625463367},{"id":"A10000028","name":"ท่าเรือวัดม่วงแค","lat":13.7263516230062,"lon":100.513558715784},{"id":"A00131143","name":"ท่าเรือดูเม็กซ์","lat":13.7254567477467,"lon":100.513649805077},{"id":"A00131135","name":"ท่าเรือสวัสดี","lat":13.7362931581383,"lon":100.509388461172},{"id":"A10153299","name":"ท่าเรือปลายถนนลาดหญ้า","lat":13.730637089383254,"lon":100.51110506057739},{"id":"A00131287","name":"สถานีรถไฟหลักสี่","lat":13.8836735407232,"lon":100.580699997433},{"id":"A00131140","name":"ท่าเรือคลองสาน","lat":13.7290932680819,"lon":100.511493261635},{"id":"A00131145","name":"ท่าเรือโอเรียลเต็ล","lat":13.7233289219629,"lon":100.513665730811},{"id":"A10000027","name":"ท่าเรือโอเรียนเต็ล","lat":13.7233325625063,"lon":100.513576436479},{"id":"A10002222","name":"สถานีรถไฟฟ้าบางพลัด (MRT) (BL07)","lat":13.79237,"lon":100.50486},{"id":"A10064298","name":"ท่าเรือสวนพลู","lat":13.722389700817914,"lon":100.51363101692556},{"id":"A10078390","name":"สถานีขนส่ง - ศูนย์ราชการเฉลิมพระเกียรติ","lat":13.87948295446487,"lon":100.56726245672311},{"id":"A00131144","name":"ท่าเรือวัดสุวรรณ","lat":13.7240919098998,"lon":100.51181356955},{"id":"A00131264","name":"สถานีรถไฟฟ้าบีทีเอสสะพานตากสิน (BTS) (S6)","lat":13.718909071539,"lon":100.514101399228},{"id":"A00131115","name":"ท่าเรือวาสุกรี","lat":13.7750067146418,"lon":100.501881725758},{"id":"A00131095","name":"ท่าเรือวัดเทพนารี","lat":13.7839456818941,"lon":100.50224229681},{"id":"A00131975","name":"กองเดินรถที่ 1 เขตมีนบุรี","lat":13.8198697028822,"lon":100.73588541209},{"id":"A10000032","name":"ท่าเรือสะพานกรุงธน","lat":13.7832173550284,"lon":100.501810470824},{"id":"A00131148","name":"ท่าเรือดูเม็กซ์","lat":13.722085714496,"lon":100.511631416199},{"id":"A10000043","name":"ท่าเรือสาทร (ตากสิน)","lat":13.7190079355416,"lon":100.512918306519},{"id":"A00131150","name":"ท่าเรือสาทร","lat":13.7186663449146,"lon":100.513004102924},{"id":"A00131107","name":"ท่าเรือซังฮี้","lat":13.782039506973,"lon":100.501129938987},{"id":"A10002229","name":"สถานีรถไฟฟ้าใต้ดินสามยอด (MRT) (BL30)","lat":13.746949918832751,"lon":100.5032005906105},{"id":"A10581925","name":"สถานีคลองสาน รถไฟฟ้าสายสีทอง (G3)","lat":13.73035178063539,"lon":100.50770401954651},{"id":"A10581924","name":"สถานีเจริญนคร รถไฟฟ้าสายสีทอง (G2)","lat":13.726571081256928,"lon":100.5090343952179},{"id":"A00131116","name":"ท่าเรือเทเวศน์","lat":13.7718524053445,"lon":100.500388785308},{"id":"A10000033","name":"Khao Thao Restaurant","lat":13.7718524053445,"lon":100.500388785308},{"id":"A10179104","name":"Pier Mekhala","lat":13.71761545306781,"lon":100.51253199577332},{"id":"A00131149","name":"ท่าเรือเป๊ปซี่","lat":13.7201750316625,"lon":100.511223353015},{"id":"A10000031","name":"ท่าเรือราชวงศ์","lat":13.7385925727019,"lon":100.504446002288},{"id":"A00131133","name":"ท่าเรือราชวงศ์","lat":13.7386041073007,"lon":100.504405031648},{"id":"A00131134","name":"ท่าเรือดินแดง","lat":13.7369631018552,"lon":100.503655211443},{"id":"A00131153","name":"ท่าเรือจักวรรดิ์","lat":13.7390072682588,"lon":100.502816400556},{"id":"A00131111","name":"ท่าเรือวิสุทธิกษัตริย์","lat":13.7685919031056,"lon":100.498433088519},{"id":"A10502557","name":"สถานีรถไฟฟ้าบีทีเอสสะพานใหม่ (BTS) (N20)","lat":13.896587311896138,"lon":100.6091183423996},{"id":"A00131113","name":"ท่าเรือวัดบวรมงคล","lat":13.7743068412794,"lon":100.49782293471},{"id":"A10000034","name":"ท่าเรือพระราม 8","lat":13.7676230562849,"lon":100.497661724914},{"id":"A00131117","name":"ท่าเรือพายัพ","lat":13.7674839007878,"lon":100.497666426547},{"id":"A00131112","name":"ท่าเรือสภ.","lat":13.773525473693,"lon":100.497588911268},{"id":"A10361625","name":"สถานี BRT วัดด่าน","lat":13.674228,"lon":100.543134},{"id":"A10012433","name":"สถานี BRT วัดด่าน","lat":13.674133,"lon":100.543238},{"id":"A00131114","name":"ท่าเรือวัดคฤหบดี","lat":13.7720291087475,"lon":100.496896976216},{"id":"A00131118","name":"ท่าเรือวัดสามพระยา","lat":13.7664155355127,"lon":100.496865733698},{"id":"A00131110","name":"ท่าเรือบ้านปูน","lat":13.768898579709,"lon":100.495560688443},{"id":"A00131120","name":"ท่าเรือบางลำภู","lat":13.7647230903016,"lon":100.495582234175},{"id":"A00131977","name":"สำนักงานขนส่งเขตพื้นที่ 4(พิกัดผิด)","lat":13.8487711968142,"lon":100.726567265242},{"id":"A00131096","name":"ท่าเรือสะพานพุทธ","lat":13.7401316000851,"lon":100.498148457845},{"id":"A10000035","name":"ท่าเรือบางลำพู","lat":13.7638700305897,"lon":100.494384608046},{"id":"A00131121","name":"ท่าเรือพระอาทิตย์","lat":13.763518223678997,"lon":100.49417093396187},{"id":"A10000042","name":"ท่าเรือสะพานพุทธ","lat":13.7403115394213,"lon":100.497100983066},{"id":"A10581930","name":"สถานีกรุงธนบุรี รถไฟฟ้าสายสีทอง (G1)","lat":13.72113573058151,"lon":100.50342857837677},{"id":"A10024969","name":"SAPAN PUT","lat":13.7437033653259,"lon":100.49601495266},{"id":"A00131160","name":"ท่าเรือวัดเศตรฉัตร","lat":13.7126350218456,"lon":100.507075757557},{"id":"A00131119","name":"ท่าเรือดาวดึงษ์","lat":13.7648365905807,"lon":100.492671917027},{"id":"A10002221","name":"สถานีรถไฟฟ้าสิรินธร (MRT) (BL06)","lat":13.783648977899988,"lon":100.49300819635391},{"id":"A10002330","name":"สถานีรถไฟฟ้าบีทีเอสกรุงธนบุรี (BTS) (S7)","lat":13.72079047994096,"lon":100.502570271492},{"id":"A10002228","name":"สถานีรถไฟฟ้าใต้ดินสนามไชย (MRT) (BL31)","lat":13.743465201988336,"lon":100.49480527639389},{"id":"A10331884","name":"Yodpiman Pier","lat":13.740880615901773,"lon":100.4953108727932},{"id":"A10012119","name":"สถานี BRT วัดปริวาศ","lat":13.67464740106547,"lon":100.53434237837791},{"id":"A10361624","name":"สถานี BRT วัดปริวาส","lat":13.674757,"lon":100.5342},{"id":"A10026568","name":"S2 Wat Worachanyawas Pier","lat":13.7094569206238,"lon":100.507089793682},{"id":"A10124768","name":"ท่าเรือข้ามฝาก ไปคลองลัดโพธิ์","lat":13.670598667744073,"lon":100.53841665387154},{"id":"A10002206","name":"สถานีแอร์พอร์ตเรลลิงก์ ลาดกระบัง","lat":13.72772,"lon":100.748609},{"id":"A10164986","name":"สถานีรถไฟลาดกระบัง","lat":13.7275703278518,"lon":100.74858114123344},{"id":"A10013988","name":"สถานี BRT วัดดอกไม้","lat":13.68235,"lon":100.52546},{"id":"A10361623","name":"สถานี BRT วัดดอกไม้","lat":13.682387,"lon":100.525426},{"id":"A00131099","name":"ท่าเรือราชินี","lat":13.7418181039072,"lon":100.494135494271},{"id":"A10000040","name":"ท่าเรือราชินี","lat":13.7417445274751,"lon":100.494065865637},{"id":"A10000036","name":"ท่าเรือพระปิ่นเกล้า","lat":13.7630808149824,"lon":100.490688234339},{"id":"A00131094","name":"ท่าเรือสะพานพระปิ่นเกล้า","lat":13.7630238883792,"lon":100.490573373706},{"id":"A00131163","name":"ท่าจอดเรือชุมชนบ้านบึงขวาง","lat":13.8006996573623,"lon":100.753925171503},{"id":"A00131159","name":"ท่าเรือวัดกัลยา","lat":13.7395973813265,"lon":100.493909338544},{"id":"A10321263","name":"Tha Pier Kham Alley","lat":13.74292848585237,"lon":100.4928606748581},{"id":"A10007637","name":"ท่าเรือ สาธุประดิษฐ์","lat":13.677268095,"lon":100.527530967},{"id":"A10000041","name":"ท่าเรือท่าเตียน","lat":13.7449794785341,"lon":100.490902876294},{"id":"A00131154","name":"ท่าเรือแดง","lat":13.7452088775958,"lon":100.490779781049},{"id":"A00131101","name":"ท่าเรือท่าพระจันทร์","lat":13.7564719566948,"lon":100.488756709557},{"id":"A00131155","name":"ท่าเรือท่าพระจันทร์ใต้","lat":13.7555788541742,"lon":100.488649482019},{"id":"A00131995","name":"ท่าวัง","lat":13.7534345235942,"lon":100.488869948886},{"id":"A00131098","name":"ท่าเรือท่าเตียน","lat":13.7462683405036,"lon":100.490042274012},{"id":"A00131156","name":"ท่าเรือมหาราช","lat":13.7546664679325,"lon":100.488611077844},{"id":"A00131151","name":"ท่าเรือวัดราชสิงขร","lat":13.7062764438,"lon":100.503995702},{"id":"A00131126","name":"ท่าเรือราชวรดิษฐ์","lat":13.750073121018,"lon":100.4888396263},{"id":"A10000039","name":"ท่าเรือท่าช้าง","lat":13.7486785400689,"lon":100.489057802947},{"id":"A00131097","name":"ท่าเรือท่าช้าง","lat":13.7522795929284,"lon":100.4883858767},{"id":"A10000038","name":"ท่าเรือท่ารถไฟ","lat":13.7593560490571,"lon":100.487499151718},{"id":"A00131122","name":"ท่าเรือรถไฟ","lat":13.7593164544999,"lon":100.487485181518},{"id":"A10013989","name":"สถานี BRT สะพานพระราม 9","lat":13.68821,"lon":100.51548},{"id":"A10361622","name":"สถานี BRT สะพานพระราม9","lat":13.688237,"lon":100.515434},{"id":"A00131136","name":"ท่าเรือวัดอรุณ","lat":13.744993209838867,"lon":100.48900604248047},{"id":"A00131123","name":"ท่าเรือศิริราช","lat":13.7571021702099,"lon":100.486872933347},{"id":"A10000037","name":"ท่าเรือ(วังหลัง) ศิริราช","lat":13.7562803719184,"lon":100.486798172708},{"id":"A00131124","name":"ท่าเรือวังหลัง (พรานนก)","lat":13.7560066246203,"lon":100.486736991442},{"id":"A10002559","name":"สถานีรถไฟฟ้าบีทีเอสวงเวียนใหญ่ (BTS) (S8)","lat":13.7211019897,"lon":100.49504613},{"id":"A10002500","name":"สถานีรถไฟฟ้าบางยี่ขัน (MRT) (BL05)","lat":13.777412602220311,"lon":100.48537328839302},{"id":"A00131125","name":"ท่าเรือวัดระฆัง","lat":13.7518843836222,"lon":100.486518631048},{"id":"A10502558","name":"สถานีรถไฟฟ้าบีทีเอสโรงพยาบาลภูมิพลอดุลยเดช (BTS) (N21)","lat":13.910735400961887,"lon":100.61745464801788},{"id":"A00131266","name":"สถานีรถไฟวงเวียนใหญ่","lat":13.7245979577015,"lon":100.492073247729},{"id":"A10299706","name":"Asiatique Ferry Shuttle Pier","lat":13.704255636903639,"lon":100.50096362829208},{"id":"A00131993","name":"สถานีขนส่งสินค้าร่มเกล้า","lat":13.7365754876664,"lon":100.760027216317},{"id":"A10002226","name":"สถานีรถไฟฟ้าใต้ดินอิสรภาพ (MRT) (BL32)","lat":13.7393,"lon":100.4846},{"id":"A10013990","name":"สถานี BRT เจริญราษฏร์","lat":13.690214894410264,"lon":100.50427883863449},{"id":"A10361621","name":"สถานี BRT เจริญราฎร์","lat":13.69028,"lon":100.504213},{"id":"A00131270","name":"สถานีรถไฟธนบุรี","lat":13.7605200667994,"lon":100.478796692422},{"id":"A10013991","name":"สถานี BRT สะพานพระราม 3","lat":13.693748612350982,"lon":100.50029441714287},{"id":"A10361620","name":"สถานี BRT สะพานพระราม3","lat":13.693955,"lon":100.500069},{"id":"A10502559","name":"สถานีรถไฟฟ้าบีทีเอสพิพิธภัณฑ์กองทัพอากาศ (BTS) (N22)","lat":13.917900242313184,"lon":100.62163352966309},{"id":"A10026543","name":"S Rat Burana Pier","lat":13.6835843324661,"lon":100.507006645203},{"id":"A10002328","name":"สถานีรถไฟฟ้าบีทีเอสโพธิ์นิมิตร (BTS) (S9)","lat":13.71949,"lon":100.4869},{"id":"A10029306","name":"สตาร์เมกเกอร์(ปิ่นเกล้า)","lat":13.7784012117313,"lon":100.476375818306},{"id":"A00131248","name":"สถานีรถไฟบางบำหรุ","lat":13.7920923233079,"lon":100.477401733399},{"id":"A00131275","name":"สถานีรถไฟดอนเมือง","lat":13.9202321866026,"lon":100.601257599809},{"id":"A10002497","name":"สถานีรถไฟฟ้าบางขุนนนท์ (MRT) (BL04)","lat":13.763114418575405,"lon":100.47336369752884},{"id":"A10502560","name":"สถานีรถไฟฟ้าบีทีเอสแยก คปอ. (BTS) (N23)","lat":13.924840970653168,"lon":100.6257963180542},{"id":"A00131265","name":"สถานีรถไฟตลาดพลู","lat":13.720767001347,"lon":100.47802980677},{"id":"A10013992","name":"สถานี BRT ราชพฤกษ์","lat":13.716066357891957,"lon":100.47930344939232},{"id":"A10002218","name":"สถานีรถไฟฟ้าไฟฉาย (MRT) (BL03)","lat":13.755216632191079,"lon":100.46949326992035},{"id":"A10361619","name":"สถานี BRT ราชพฤกษ์","lat":13.715902,"lon":100.478927},{"id":"A00131974","name":"สถานีขนส่งสายใต้ใหม่(ยกเลิกสถานที่ไปแล้ว)","lat":13.7849603972133,"lon":100.468979961308},{"id":"A10002214","name":"สถานีรถไฟฟ้าท่าพระ (MRT) (BL01)","lat":13.729722536827435,"lon":100.47424480319023},{"id":"A10002217","name":"สถานีรถไฟฟ้าจรัญฯ 13 (MRT) (BL02)","lat":13.740065110543982,"lon":100.47086656093597},{"id":"A00131893","name":"สำนักงานขนส่งกรุงเทพสายใต้","lat":13.7861270803178,"lon":100.467930484165},{"id":"A10002327","name":"สถานีรถไฟฟ้าบีทีเอสตลาดพลู (BTS) (S10)","lat":13.71417,"lon":100.47592},{"id":"A00131104","name":"ท่าเรือบางแวก","lat":13.7230873078886,"lon":100.471194233615},{"id":"A10072746","name":"ท่าเรือดาวคะนอง","lat":13.693316671037124,"lon":100.48151558729022},{"id":"A10002498","name":"สถานีรถไฟฟ้าบางไผ่ (MRT) (BL33)","lat":13.724612962483011,"lon":100.4652513563633},{"id":"A00131307","name":"สถานีรถไฟหัวตะเข้","lat":13.7281390000015,"lon":100.782859000001},{"id":"A10002326","name":"สถานีรถไฟฟ้าบีทีเอสวุฒากาศ (BTS) (S11)","lat":13.713193232085077,"lon":100.46883119510643},{"id":"A00457518","name":"สำนักงานขนส่งกรุงเทพมหานครเขตพื้นที่ 2","lat":13.794739,"lon":100.457685},{"id":"A00131984","name":"ท่าปล่อยรถโดยสาร","lat":13.7558164037672,"lon":100.454265623358},{"id":"A10002325","name":"สถานีรถไฟฟ้าบีทีเอสบางหว้า (BTS) (S12)","lat":13.7207964897156,"lon":100.458027030182},{"id":"A00131103","name":"ท่าเรือบางแวก","lat":13.7238585124803,"lon":100.45659905621},{"id":"A10177997","name":"สถานีรถไฟฟ้าบางหว้า (MRT) (BL34)","lat":13.720195084246805,"lon":100.45721411705017},{"id":"A10123984","name":"จุดเริ่มต้น","lat":13.953710704447085,"lon":100.60670837759972},{"id":"A00131305","name":"สถานีชุมทางตลิ่งชัน","lat":13.7891531187242,"lon":100.440924284547},{"id":"A10002211","name":"สถานีรถไฟฟ้าเพชรเกษม 48 (MRT) (BL35)","lat":13.715437075771229,"lon":100.44560417532921},{"id":"A00131105","name":"ท่าเรือบางแค","lat":13.714318193113,"lon":100.444986676047},{"id":"A00131968","name":"กองเดินรถที่  2 องค์การขนส่งมวนชนกรุงเทพ","lat":13.6443312188151,"lon":100.479596689435},{"id":"A00131102","name":"ท่าเรือบางหนังเชือก","lat":13.7409424306446,"lon":100.431796670975},{"id":"A00131310","name":"สถานีรถไฟวัดสิงห์","lat":13.683258570666,"lon":100.44781349372},{"id":"A10099470","name":"ศูนย์รถตู้สาธารณะ พุทธมณฑลสาย1 (ศูนย์รถตู้ปรับอากาศ)","lat":13.780141,"lon":100.426105},{"id":"A10002210","name":"สถานีรถไฟฟ้าภาษีเจริญ (MRT) (BL36)","lat":13.712936867824567,"lon":100.43440595269203},{"id":"A00131162","name":"สำนักงานขนส่งกรุงเทพมหานครและสำนักงานทะเบียนรถยนต์ 2","lat":13.793452245263,"lon":100.425824171921},{"id":"A00131922","name":"สำนักงานขนส่งกรุงเทพ (สายใต้)","lat":13.7807663459,"lon":100.42340047},{"id":"A10063192","name":"สถานีขนส่งสายใต้ใหม่ (ถนนบรมราชชนนี)","lat":13.780894857787487,"lon":100.42288518044182},{"id":"A10122957","name":"ท่าเรือ เพชรเกษม35","lat":13.709699195777077,"lon":100.4324358701706},{"id":"A00457515","name":"สถานีบ้านฉิมพลี","lat":13.7994531463238,"lon":100.42053431249},{"id":"A10002209","name":"สถานีรถไฟฟ้าบางแค (MRT) (BL37)","lat":13.711872414777025,"lon":100.42237624526024},{"id":"A10006576","name":"ชมรมบางขุนเทียน","lat":13.6787018013,"lon":100.42452922},{"id":"A10063890","name":"ท่ารถดีเค เคหะธนบุรี","lat":13.671457414936334,"lon":100.42775137814643},{"id":"A00131992","name":"กองปฏิบัติการเดินรถที่ 2 เขต 5","lat":13.6632525106443,"lon":100.431859684244},{"id":"A00131311","name":"สถานีรถไฟบางบอน","lat":13.6666036343626,"lon":100.428776108715},{"id":"A10002208","name":"สถานีรถไฟฟ้าหลักสอง (MRT) (BL38)","lat":13.710852255124998,"lon":100.40952175855637},{"id":"A00131983","name":"องค์การขนส่งมวลชนกรุงเทพ เขตการเดินรถที่ 6","lat":13.7312264181215,"lon":100.400017871602},{"id":"A10079671","name":"ที่หยุดรถไฟพุทธมณฑล สาย 2 (สถานีรถไฟ)","lat":13.799846753860486,"lon":100.39437061640848},{"id":"A00131106","name":"ท่าเรือสี่แยกคลองบางแวก","lat":13.7227339959888,"lon":100.395716064616},{"id":"A00131999","name":"ท่าปล่อยรถสาย 147","lat":13.6502883617946,"lon":100.419138324829},{"id":"A00131979","name":"สำนักงานขนส่งเขตพื้นที่ 1 บางขุนเทียน","lat":13.6211920780395,"lon":100.438407081462},{"id":"A00131997","name":"ที่ทำการ ข.ส.ม.ก.","lat":13.7081877711138,"lon":100.389517601363},{"id":"A00131998","name":"โรงจอดรถข.ส.ม.ก.","lat":13.7075004245228,"lon":100.389430380917},{"id":"A00131981","name":"กองเดินรถที่ 11 เขต 6 ข.ส.ม.ก.","lat":13.7083596007055,"lon":100.389191738179},{"id":"A00131256","name":"สถานีรถไฟหลวงแพ่ง","lat":13.7200588015886,"lon":100.862733155508},{"id":"A00457513","name":"สถานีรถไฟศาลาธรรมสพน์","lat":13.8010216674886,"lon":100.370810164813},{"id":"A10076062","name":"หจก.หาดใหญ่ทัวร์ ขนส่ง","lat":13.757670144036616,"lon":100.36922758910639},{"id":"A10076063","name":"บริษัท สหะทิพย์ทอง ขนส่ง","lat":13.757663630893788,"lon":100.36910957190975},{"id":"A10033702","name":"พรกิจขนส่ง","lat":13.7747723802819,"lon":100.365074859},{"id":"A10033703","name":"เอกชัยขนส่ง","lat":13.7742018700061,"lon":100.364069030619},{"id":"A00131253","name":"สถานีรถไฟรางโพธิ์","lat":13.638991075709,"lon":100.397789336591},{"id":"A00131312","name":"สถานีรถไฟสามแยก","lat":13.6303018600229,"lon":100.388446421956},{"id":"A00131252","name":"สถานีรถไฟพรมแดน","lat":13.6213958566361,"lon":100.378811455482},{"id":"A00215365","name":"บริษัท นิวเกียรติขนส่ง(สายใต้) จำกัด","lat":13.63786483515545,"lon":100.36682769656181},{"id":"A10353731","name":"ท่าเรือบางกอกซีวิว","lat":13.528261240382257,"lon":100.42280942201614}]