[
	{ "id": "A10005743", "name": "สวนป่าสะเมิง", "lat": 18.9272191238, "lon": 98.7410311043 },
	{
		"id": "A10042703",
		"name": "สวนพฤกษศาสตร์สมเด็จพระนางเจ้าสิริกิติ์",
		"lat": 18.8991197960871,
		"lon": 98.8603529196454
	},
	{
		"id": "A10042705",
		"name": "สวนบัวแม่สาออร์คิด",
		"lat": 18.9149638953145,
		"lon": 98.9066250484593
	},
	{
		"id": "A10028142",
		"name": "ลัดดาแลนด์ เชียงใหม่",
		"lat": 18.8195270999853,
		"lon": 98.9661365747983
	},
	{
		"id": "A10066222",
		"name": "คุ้มเจ้าน้อย นกแต้",
		"lat": 18.986624825613497,
		"lon": 98.89853952938506
	},
	{ "id": "A10010899", "name": "ที่สวนคุณบัญชา", "lat": 18.8257341575623, "lon": 99.0314973175049 },
	{
		"id": "A10314165",
		"name": "สวนสาธารณะ เทศบาลสันทรายหลวง",
		"lat": 18.83803151423007,
		"lon": 99.0418741106987
	},
	{ "id": "A10047191", "name": "สวนสุขภาพ", "lat": 18.7018721845266, "lon": 99.0419954668699 },
	{ "id": "A10055806", "name": "สวนพันดาว", "lat": 18.859331023226343, "lon": 99.06918166688877 },
	{ "id": "A10002421", "name": "สวนป่าแม่หอพระ", "lat": 19.0961874389648, "lon": 99.0837003051758 }
]
