[
	{
		"id": "A10107442",
		"name": "พิพิธภัณฑ์หมู่บ้านชาวเขาดอยปุย",
		"lat": 18.809137942166142,
		"lon": 98.91616702079773
	},
	{
		"id": "A10060642",
		"name": "พิพิธภัณฑ์แมลงโลก และสิ่งมหัศจรรย์ธรรมชาติ",
		"lat": 18.79616899903421,
		"lon": 98.97067016475575
	},
	{
		"id": "A00146338",
		"name": "พิพิธภัณฑ์เจ้าแม่ดารารัศมี",
		"lat": 18.9128870352998,
		"lon": 98.9421659062731
	},
	{
		"id": "A10042676",
		"name": "พิพิธภัณฑ์และพระตำหนักดาราภิรมย์ จุฬาลงกรณ์มหาวิทยาลัย",
		"lat": 18.914546,
		"lon": 98.942686
	},
	{
		"id": "A10286904",
		"name": "พิพิธภัณฑ์เรียนรู้ราษฎรบนพื้นที่สูง จังหวัดเชียงใหม่",
		"lat": 18.821444530156466,
		"lon": 98.9747298695147
	},
	{
		"id": "A00146347",
		"name": "พิพิธภัณฑ์สถานแห่งชาติเชียงใหม่",
		"lat": 18.8112970000019,
		"lon": 98.976661
	},
	{ "id": "A00146356", "name": "พิพิธภัณฑ์พระพิฆเนศ", "lat": 18.560804, "lon": 98.824992 },
	{ "id": "A10059567", "name": "พิพิธภัณฑ์พระพิฆเนศ", "lat": 18.560804, "lon": 98.824992 },
	{
		"id": "A00146284",
		"name": "พิพิธภัณฑ์ท้องถิ่นจังหวัดเชียงใหม่",
		"lat": 18.7899379730329,
		"lon": 98.987060546875
	},
	{
		"id": "A10073609",
		"name": "พิพิธภัณฑ์พื้นถิ่นล้านนา",
		"lat": 18.790225334356027,
		"lon": 98.9879603546156
	},
	{
		"id": "A10075101",
		"name": "พิพิธภัณฑ์ภาพจิตรกรรม 3 มิติ เชียงใหม่",
		"lat": 18.776133764128303,
		"lon": 98.99933090918043
	},
	{
		"id": "A10255970",
		"name": "พิพิธภัณฑ์ตราไปรษณียากรเชียงใหม่",
		"lat": 18.789283904118065,
		"lon": 99.00222770869732
	},
	{
		"id": "A00146295",
		"name": "พิพิธภัณฑ์ตราไปรษณียากร",
		"lat": 18.7892837524518,
		"lon": 99.0022277832031
	},
	{
		"id": "A10059084",
		"name": "พิพิธภัณฑ์วัดเกตุ",
		"lat": 18.792212927299847,
		"lon": 99.00296664349959
	},
	{
		"id": "A00146310",
		"name": "พิพิธภัณฑ์วัฒนธรรมการเกษตรไทย",
		"lat": 18.900554656993,
		"lon": 99.0066604614258
	},
	{
		"id": "A10148601",
		"name": "พิพิธภัณฑ์ศิลปะร่วมสมัยใหม่เอี่ยม",
		"lat": 18.75726888569465,
		"lon": 99.09379228949547
	},
	{
		"id": "A10132547",
		"name": "พิพิธภัณฑ์บ้านจ๊างนัก",
		"lat": 18.722380474550008,
		"lon": 99.11621689796448
	},
	{
		"id": "A00146304",
		"name": "พิพิธภัณฑ์ผ้าป้าดา (บ้านไร่ไผ่งาม)",
		"lat": 18.3277624354701,
		"lon": 98.671890494471
	},
	{
		"id": "A10045770",
		"name": "พิพิธภัณฑ์โรงงานหลวงที่๑ (ฝาง)",
		"lat": 19.8023206048234,
		"lon": 99.0936809640274
	},
	{
		"id": "A10583966",
		"name": "ศูนย์พิพิธภัณฑ์เผ่าม้ง ดอยอินทนนท์",
		"lat": 18.54034419100627,
		"lon": 98.51909548044205
	},
	{
		"id": "A10065134",
		"name": "บ้านไทยลื้อ (พิพิธภัณฑ์วิถีชีวิต และวัฒนธรรม)",
		"lat": 18.866501961084,
		"lon": 99.12605321517589
	}
]
