[
	{
		"id": "A10040735",
		"name": "พิพิธภัณฑ์เหมืองทองคำบ้านบ่อทอง",
		"lat": 13.2772343308847,
		"lon": 101.438266918844
	},
	{ "id": "A10126523", "name": "พิพิธภัณฑ์อวกาศ", "lat": 13.102231, "lon": 100.930214 },
	{
		"id": "A00146717",
		"name": "พิพิธภัณฑ์อ่างศิลา",
		"lat": 13.3398742675819,
		"lon": 100.925971984864
	},
	{
		"id": "A00010522",
		"name": "พิพิธภัณฑ์เฉลิมพระเกียรติ 72 พรรษามหาราช",
		"lat": 13.3405787242368,
		"lon": 100.926102965621
	},
	{
		"id": "A10070195",
		"name": "พิพิธภัณฑ์ขวดพัทยา",
		"lat": 12.955307607494966,
		"lon": 100.90729615177752
	},
	{
		"id": "A10165967",
		"name": "พิพิธภัณฑ์พุทธศิลปะ หนองปรือ",
		"lat": 12.910345851330078,
		"lon": 100.94404444098473
	},
	{
		"id": "A10033893",
		"name": "พิพิธภัณฑ์พระราชวังจุฑารุชราชฐาน",
		"lat": 13.1501801144347,
		"lon": 100.816839323315
	},
	{
		"id": "A10037893",
		"name": "พิพิธภัณฑ์ภาพจิตรกรรม 3 มิติ พัทยา (Art in paradise)",
		"lat": 12.9480015547743,
		"lon": 100.889556691908
	},
	{
		"id": "A00146760",
		"name": "พิพิธภัณฑ์ศิลปในขวดแก้ว",
		"lat": 12.9291620000006,
		"lon": 100.900585000002
	},
	{
		"id": "A10079499",
		"name": "พิพิธภัณฑ์ตุ๊กตาหมี",
		"lat": 12.946806295543679,
		"lon": 100.88488830711795
	},
	{
		"id": "A10035853",
		"name": "พิพิธภัณฑ์ริบลีส์",
		"lat": 12.9299308976299,
		"lon": 100.877918586994
	},
	{
		"id": "A10007867",
		"name": "พิพิธภัณฑ์ริบลี่ย์ เชื่อหรือไม่",
		"lat": 12.9288600159,
		"lon": 100.878604099
	},
	{
		"id": "A10504252",
		"name": "พิพิธภัณฑ์ริบลีส์พัทยา",
		"lat": 12.928612031966487,
		"lon": 100.87859183549881
	},
	{
		"id": "A10314591",
		"name": "พิพิธภัณฑ์บุญญาภิรัติ หลวงปู่ทิม",
		"lat": 12.862386531128761,
		"lon": 100.91513693332672
	},
	{
		"id": "A00146762",
		"name": "พิพิธภัณฑ์ธรรมชาติวิทยาและทะเลไทย",
		"lat": 12.6031800000005,
		"lon": 100.951012000002
	},
	{
		"id": "A10129071",
		"name": "พิพิธภัณฑ์ธรรมชาติวิทยาเกาะและทะเลไทย",
		"lat": 12.602718522266724,
		"lon": 100.95009282231331
	},
	{
		"id": "A10385921",
		"name": "กองอุตุนิยมวิทยาพิพิธภัณฑ์อุทกศาสตร์",
		"lat": 12.692648157469632,
		"lon": 100.98119705915451
	}
]
