[
	{
		"id": "A10117721",
		"name": "แม็กซ์แวลู (เจ พาร์ค ศรีราชา)",
		"lat": 13.154073083067736,
		"lon": 100.98380818963051
	},
	{
		"id": "A10627875",
		"name": "ซีเจ ซูเปอร์มาร์เก็ต สาขาหนองรี ชลบุรี",
		"lat": 13.339750694330457,
		"lon": 101.03533744812012
	},
	{ "id": "A10072354", "name": "Tops daily", "lat": 13.10095311486165, "lon": 100.96538810516626 },
	{
		"id": "A10627870",
		"name": "ซีเจ ซูเปอร์มาร์เก็ต สาขาเพชรบ้านสวน",
		"lat": 13.351199792949435,
		"lon": 100.99019721150398
	},
	{
		"id": "A10390643",
		"name": "ท็อปส์ มาร์เก็ต โรบินสัน อมตะ",
		"lat": 13.405754966848967,
		"lon": 101.04305148124695
	},
	{
		"id": "A10126453",
		"name": "แม็กซ์แวลู ซูเปอร์มาร์เก็ต (อิออน ศรีราชา)",
		"lat": 13.16743615832166,
		"lon": 100.93577519059181
	},
	{ "id": "A10036667", "name": "ท็อปส์ ศรีราชา แหลมทอง", "lat": 13.1708, "lon": 100.932 },
	{
		"id": "A10036938",
		"name": "ท็อปส์ มาร์เก็ต โรบินสัน ศรีราชา",
		"lat": 13.168171,
		"lon": 100.930962
	},
	{
		"id": "A10036939",
		"name": "ท็อปส์ มาร์เก็ต เซ็นทรัลพลาซ่า ชลบุรี",
		"lat": 13.335371,
		"lon": 100.970267
	},
	{
		"id": "A10390650",
		"name": "ท็อปส์ มาร์เก็ต ตึกคอม ศรีราชา",
		"lat": 13.16221402891597,
		"lon": 100.92847153544426
	},
	{
		"id": "A10251470",
		"name": "แม็กซ์แวลู (อาทาระ มอลล์)",
		"lat": 13.16799636514125,
		"lon": 100.92702984809875
	},
	{
		"id": "A10511772",
		"name": "ซีเจ ซูเปอร์มาร์เก็ต หนองยายรัก",
		"lat": 13.408382342152363,
		"lon": 101.02850452065468
	},
	{
		"id": "A10627857",
		"name": "ซีเจ ซูเปอร์มาร์เก็ต สาขาบ้านเก่า-หนองตำลึง",
		"lat": 13.432233525106605,
		"lon": 101.06217965483665
	},
	{
		"id": "A10176678",
		"name": "ร้านพีมาร์ท ซูปเปอร์สโตร์ สาขาชลบุรี",
		"lat": 13.34766621066305,
		"lon": 100.97137346863747
	},
	{
		"id": "A10509856",
		"name": "ซีเจ ซูเปอร์มาร์เก็ต สาขาหนองไม้แดง",
		"lat": 13.404616080747529,
		"lon": 101.00873127579689
	},
	{
		"id": "A10029480",
		"name": "ท็อปส์ มาร์เก็ต แหลมทอง บางแสน",
		"lat": 13.2866711577933,
		"lon": 100.926670432145
	},
	{ "id": "A10036655", "name": "ท็อปส์ บางแสน", "lat": 13.2869, "lon": 100.9264 },
	{
		"id": "A10595877",
		"name": "ซีเจ ซูเปอร์มาร์เก็ต สาขาไร่วนาสินธ์",
		"lat": 12.940489430165602,
		"lon": 100.91869622468948
	},
	{
		"id": "A10390645",
		"name": "ท็อปส์ มาร์เก็ต สาขาเดอะชิลล์ พัทยา",
		"lat": 12.92275220271273,
		"lon": 100.91123163700104
	},
	{
		"id": "A10071801",
		"name": "ท็อปซุปเปอร์มาร์เก็ต สาขาซอยวัดบุญสัมพันธ์ (พัทยา)",
		"lat": 12.924827273318053,
		"lon": 100.90532875146538
	},
	{
		"id": "A10627859",
		"name": "ซีเจ ซูเปอร์มาร์เก็ต สาขาบุญสัมพันธ์",
		"lat": 12.925055368604301,
		"lon": 100.90511754155159
	},
	{
		"id": "A10390648",
		"name": "ท็อปส์ เดลี่ มาร์คแลนด์ พัทยา",
		"lat": 12.946743560732926,
		"lon": 100.8852168917656
	},
	{
		"id": "A10072498",
		"name": "ท็อปส์ เดลี่ อีซี่พอยท์ พัทยา",
		"lat": 12.925169740297529,
		"lon": 100.89839121784931
	},
	{ "id": "A10036654", "name": "ท็อปส์ พัทยา", "lat": 12.9388, "lon": 100.8867 },
	{
		"id": "A00132605",
		"name": "ท๊อปส์ ซุปเปอร์มาร์เก็ต",
		"lat": 12.9369064867432,
		"lon": 100.886160099387
	},
	{
		"id": "A10390649",
		"name": "ท็อปส์ เดลี่ ตลาดรัตนากร เขาตาโล",
		"lat": 12.90815889190209,
		"lon": 100.90428337454796
	},
	{
		"id": "A10390644",
		"name": "ท็อปส์ มาร์เก็ต สาขาบ้านแอนด์บียอนด์ พัทยา",
		"lat": 12.914153703342693,
		"lon": 100.89474141597748
	},
	{
		"id": "A10029479",
		"name": "ท็อปส์ มาร์เก็ต ตึกคอม พัทยาใต้",
		"lat": 12.9237848393164,
		"lon": 100.878674984032
	},
	{
		"id": "A10390647",
		"name": "ท็อปส์ เดลี่ สาขาโค้งหนุมาน",
		"lat": 12.915285720936502,
		"lon": 100.86983844637871
	}
]
