[
	{
		"id": "A10039424",
		"name": "โรงภาพยนตร์เมเจอร์ซีนีเพล็กซ์ ชลบุรี",
		"lat": 13.3247488642275,
		"lon": 100.96477924372
	},
	{
		"id": "A10029165",
		"name": "เอสเอฟซี แหลมทอง บางแสน",
		"lat": 13.2866293911878,
		"lon": 100.926815271432
	},
	{
		"id": "A10029161",
		"name": "เอสเอฟซี ฮาเบอร์มอลล์ แหลมฉบัง",
		"lat": 13.0791647620708,
		"lon": 100.920254588181
	},
	{
		"id": "A10014632",
		"name": "เมเจอร์ ซีนีเพล็กซ์",
		"lat": 13.4259568023682,
		"lon": 101.004266444397
	},
	{
		"id": "A10312197",
		"name": "เอสเอฟ ซิเนม่า ซิตี้ (เทอร์มินอล 21 พัทยา)",
		"lat": 12.95060836505769,
		"lon": 100.88821694254875
	},
	{ "id": "A00312270", "name": "ทิฟฟานีโชว์", "lat": 12.9488710000006, "lon": 100.888199000002 },
	{
		"id": "A10029131",
		"name": "เอสเอฟเอ็กซ์ ซิเนม่า เซนทรัล พัทยา บีช",
		"lat": 12.9357108288745,
		"lon": 100.882725119645
	},
	{
		"id": "A10029168",
		"name": "เอสเอฟซี เซ็นทรัล พัทยา",
		"lat": 12.9356742309183,
		"lon": 100.882741212899
	},
	{
		"id": "A10035806",
		"name": "เมเจอร์ ซีนีเพล็กซ์ พัทยา",
		"lat": 12.929713920696976,
		"lon": 100.8810567855835
	},
	{
		"id": "A10052056",
		"name": "โรงภาพยนตร์ทะลุมิติ",
		"lat": 12.9289074361943,
		"lon": 100.878767506147
	},
	{
		"id": "A10157165",
		"name": "สิงห์ ดีลักษณ์ ซีเนมาติก เธียเตอร์",
		"lat": 12.906888276681562,
		"lon": 100.87841212749481
	},
	{
		"id": "A10261539",
		"name": "โรงละคร นงนุช เธียร์เตอร์",
		"lat": 12.768462501918977,
		"lon": 100.93284487724304
	},
	{
		"id": "A10334929",
		"name": "เมเจอร์ ซีนีเพล็กซ์ บิ๊กซี สัตหีบ",
		"lat": 12.701029191576612,
		"lon": 100.88943868875504
	}
]
