[
	{
		"id": "A10131847",
		"name": "สวนสุขภาพเฉลิมพระเกียรติ 84 พรรษา บ่อวิน",
		"lat": 13.038795052515892,
		"lon": 101.12167239189148
	},
	{
		"id": "A10080885",
		"name": "สวนเบญจวรรณพันธ์ไม้",
		"lat": 13.066412846527363,
		"lon": 101.41710630137621
	},
	{
		"id": "A10090791",
		"name": "สวนพระพรหม เครือสหพัฒน์ ศรีราชา ชลบุรี",
		"lat": 13.09997607823445,
		"lon": 100.96675604581833
	},
	{ "id": "A10046751", "name": "สวนท่านนารถ", "lat": 13.3380725592862, "lon": 100.963920936835 },
	{
		"id": "A10507444",
		"name": "สนามกีฬาสวนสาธารณะเฉลิมพระเกียรติ ร.9",
		"lat": 13.33767716721546,
		"lon": 100.95554038882256
	},
	{
		"id": "A10335528",
		"name": "ศูนย์สุขภาพและการเรียนรู้เครือไทยออยล์เพื่อชุมชน",
		"lat": 13.117956621317953,
		"lon": 100.91197729110718
	},
	{ "id": "A10649409", "name": "ทุ่งสงขลา", "lat": 13.107243688265545, "lon": 100.91118335723877 },
	{
		"id": "A10069419",
		"name": "สวนสาธารณะบางละมุงฝั่งธน",
		"lat": 13.04532041634426,
		"lon": 100.9288544067317
	},
	{
		"id": "A10600411",
		"name": "สวนสาธารณะอ่างเก็บน้ำมาบประชัน",
		"lat": 12.948578598734645,
		"lon": 100.97417369484901
	},
	{
		"id": "A10071656",
		"name": "สวนสาธารณะ  เทศบาลบางเสร่",
		"lat": 12.765944702094417,
		"lon": 100.89434979941669
	},
	{
		"id": "A10509096",
		"name": "หอนาฬิกาสวนสาธารณะหนองตะเคียน",
		"lat": 12.66608894905424,
		"lon": 100.89720770716667
	}
]
