[{"id":"A00031737","name":"โรงพยาบาลส่งเสริมสุขภาพตำบลหนองไผ่แก้ว","lat":13.22284,"lon":101.23218},{"id":"A00031644","name":"โรงพยาบาลส่งเสริมสุขภาพตำบลมาบลำบิด","lat":13.17056,"lon":101.16304},{"id":"A10135592","name":"โรงพยาบาลส่งเสริมสุขภาพตำบลป่ายุบ","lat":13.194179706378769,"lon":101.26032248139381},{"id":"A00031736","name":"โรงพยาบาลส่งเสริมสุขภาพตำบลหมื่นจิตร","lat":13.13058,"lon":101.23889},{"id":"A00031712","name":"โรงพยาบาลส่งเสริมสุขภาพตำบลบ้านหัวกุญแจ","lat":13.252102,"lon":101.154089},{"id":"A00031738","name":"โรงพยาบาลส่งเสริมสุขภาพตำบลเฉลิมพระเกียรติ 60 พรรษา นวมินทราชินี","lat":13.1195571646057,"lon":101.160650110907},{"id":"A00031710","name":"โรงพยาบาลส่งเสริมสุขภาพตำบลอ่างเวียน","lat":13.27545,"lon":101.21403},{"id":"A10001407","name":"โรงพยาบาลบ่อทอง (พิกัดผิด)","lat":13.24748046875,"lon":101.1328015625},{"id":"A00031734","name":"โรงพยาบาลส่งเสริมสุขภาพตำบลห้วยมะระ","lat":13.14391806912398,"lon":101.29168018698692},{"id":"A00031653","name":"โรงพยาบาลส่งเสริมสุขภาพตำบลเนินโมก","lat":13.288198244362423,"lon":101.26154825091362},{"id":"A00031733","name":"โรงพยาบาลส่งเสริมสุขภาพตำบลห้างสูง","lat":13.18623,"lon":101.31544},{"id":"A00031657","name":"โรงพยาบาลส่งเสริมสุขภาพตำบลบ้านหุบบอน","lat":13.11649,"lon":101.10748},{"id":"A00031697","name":"โรงพยาบาลส่งเสริมสุขภาพตำบลป่าแดง","lat":13.263921651164843,"lon":101.30250424146652},{"id":"A00031735","name":"โรงพยาบาลส่งเสริมสุขภาพตำบลบ้านท่าจาม","lat":13.09261,"lon":101.28649},{"id":"A00031655","name":"โรงพยาบาลส่งเสริมสุขภาพตำบลบ้านหนองเขิน","lat":13.32319,"lon":101.18498},{"id":"A00031740","name":"โรงพยาบาลส่งเสริมสุขภาพตำบลบ้านโค้งดารา","lat":13.16365,"lon":101.07177},{"id":"A00031648","name":"โรงพยาบาลส่งเสริมสุขภาพตำบลหนองชัน","lat":13.333336926375082,"lon":101.23365327715874},{"id":"A00031732","name":"โรงพยาบาลส่งเสริมสุขภาพตำบลหนองเสือช้าง","lat":13.13608,"lon":101.33713},{"id":"A00031649","name":"โรงพยาบาลส่งเสริมสุขภาพตำบลบ้านหนองเสม็ด","lat":13.326673735139476,"lon":101.2707670032978},{"id":"A00019727","name":"โรงพยาบาลบ้านบึง","lat":13.3163316709094,"lon":101.109491332675},{"id":"A10069101","name":"โรงพยาบาล ปิยะเวชช์ บ่อวิน","lat":13.062794143196491,"lon":101.10273933493399},{"id":"A00031714","name":"โรงพยาบาลส่งเสริมสุขภาพตำบลหนองบอนแดง","lat":13.3464732740371,"lon":101.151009775177},{"id":"A00019732","name":"โรงพยาบาลหนองใหญ่","lat":13.1571862406826,"lon":101.363614614047},{"id":"A00031650","name":"โรงพยาบาลส่งเสริมสุขภาพตำบลบ้านปักมึน","lat":13.31706,"lon":101.315},{"id":"A00031707","name":"โรงพยาบาลส่งเสริมสุขภาพตำบลหมอนนาง","lat":13.35876,"lon":101.22809},{"id":"A00031711","name":"โรงพยาบาลส่งเสริมสุขภาพตำบลหนองยาง","lat":13.3619294047043,"lon":101.17686554789543},{"id":"A00031742","name":"โรงพยาบาลส่งเสริมสุขภาพตำบลบ้านหนองค้อ","lat":13.12641,"lon":101.02912},{"id":"A00031639","name":"โรงพยาบาลส่งเสริมสุขภาพตำบลบ้านห้วยกรุ","lat":13.20611,"lon":101.01308},{"id":"A00031717","name":"โรงพยาบาลส่งเสริมสุขภาพตำบลมาบไผ่","lat":13.3487,"lon":101.08342},{"id":"A00031741","name":"โรงพยาบาลส่งเสริมสุขภาพตำบลบ่อวิน","lat":13.05066,"lon":101.06375},{"id":"A00031691","name":"โรงพยาบาลส่งเสริมสุขภาพตำบลหนองซ้ำซาก","lat":13.334880312048,"lon":101.064333168304},{"id":"A00031698","name":"โรงพยาบาลส่งเสริมสุขภาพตำบลบ้านบึงตะกู","lat":13.33147,"lon":101.34356},{"id":"A00031743","name":"โรงพยาบาลส่งเสริมสุขภาพตำบลบ้านห้วยกุ่ม","lat":13.23718,"lon":101.00596},{"id":"A00031708","name":"โรงพยาบาลส่งเสริมสุขภาพตำบลบ้านหนองไทร","lat":13.395253006247463,"lon":101.22532233595848},{"id":"A00031654","name":"โรงพยาบาลส่งเสริมสุขภาพตำบลทุ่งขวาง","lat":13.39969,"lon":101.1907},{"id":"A10543891","name":"โรงพยาบาลอมตะเวชกรรม","lat":13.023668921264893,"lon":101.07307076454163},{"id":"A00031646","name":"โรงพยาบาลส่งเสริมสุขภาพตำบลบ้านเนินแร่","lat":13.40053,"lon":101.24937},{"id":"A00031704","name":"โรงพยาบาลส่งเสริมสุขภาพตำบลบ้านเกาะโพธิ์","lat":13.3922267617686,"lon":101.277921687099},{"id":"A00031721","name":"โรงพยาบาลส่งเสริมสุขภาพตำบลหัวโกรก","lat":13.31927,"lon":101.023},{"id":"A00031713","name":"โรงพยาบาลส่งเสริมสุขภาพตำบลหนองขยาด","lat":13.40748,"lon":101.15022},{"id":"A00031718","name":"โรงพยาบาลส่งเสริมสุขภาพตำบลสำนักบก","lat":13.3634,"lon":101.06059},{"id":"A00031651","name":"โรงพยาบาลส่งเสริมสุขภาพตำบลท่าบุญมี","lat":13.38644,"lon":101.31419},{"id":"A00031744","name":"โรงพยาบาลส่งเสริมสุขภาพตำบลตลาดบึง","lat":13.07427,"lon":101.00844},{"id":"A00031679","name":"โรงพยาบาลส่งเสริมสุขภาพตำบลหนองรี","lat":13.3463659787832,"lon":101.035898450031},{"id":"A00031647","name":"โรงพยาบาลส่งเสริมสุขภาพตำบลนาเริก","lat":13.41594,"lon":101.2377},{"id":"A10135923","name":"โรงพยาบาลส่งเสริมสุขภาพตำบลเขาซก","lat":13.078860390712247,"lon":101.40147238969803},{"id":"A00031730","name":"โรงพยาบาลส่งเสริมสุขภาพตำบลคลองพลู","lat":13.10918,"lon":101.41764},{"id":"A10135948","name":"โรงพยาบาลส่งเสริมสุขภาพตำบลบ้านนาพร้าว","lat":13.163922104498798,"lon":100.97020000219345},{"id":"A10135945","name":"โรงพยาบาลส่งเสริมสุขภาพตำบลนามะตูม","lat":13.423539414575764,"lon":101.17143139243126},{"id":"A10135930","name":"โรงพยาบาลส่งเสริมสุขภาพตำบลมาบโป่ง","lat":13.417545317031374,"lon":101.13373026251793},{"id":"A00019719","name":"โรงพยาบาลบ่อทอง","lat":13.282598495486,"lon":101.419502258298},{"id":"A00031699","name":"โรงพยาบาลส่งเสริมสุขภาพตำบลบ้านซ่อง","lat":13.32045,"lon":101.40809},{"id":"A00031690","name":"โรงพยาบาลส่งเสริมสุขภาพตำบลหนองข้างคอก","lat":13.3309882094419,"lon":100.997779154692},{"id":"A10317093","name":"ศูนย์อนามัยที่ 6 (เดิมชื่อศูนย์อนามัยที่ 3 หรือที่ชาวบ้านรู้จักในนามโรงพยาบาลแม่และเด็ก)","lat":13.36858899999996,"lon":101.026276},{"id":"A00019731","name":"โรงพยาบาลแม่และเด็ก","lat":13.3685890682598,"lon":101.026275172496},{"id":"A10135944","name":"โรงพยาบาลส่งเสริมสุขภาพตำบลบ้านสวนผัก","lat":13.441245587075933,"lon":101.19732543826103},{"id":"A00031685","name":"โรงพยาบาลส่งเสริมสุขภาพตำบลบ้านไร่หนึ่ง","lat":13.09598,"lon":100.96981},{"id":"A00031692","name":"โรงพยาบาลส่งเสริมสุขภาพตำบลห้วยกะปิ","lat":13.2965666097384,"lon":100.973957655772},{"id":"A10135947","name":"โรงพยาบาลส่งเสริมสุขภาพตำบลบ้านเซิด","lat":13.435665427102299,"lon":101.14275991916656},{"id":"A10135932","name":"โรงพยาบาลส่งเสริมสุขภาพตำบลหนองกะขะ","lat":13.425159556273643,"lon":101.1065836250782},{"id":"A00031720","name":"โรงพยาบาลส่งเสริมสุขภาพตำบลนาป่า","lat":13.39713,"lon":101.0499},{"id":"A10135581","name":"โรงพยาบาลส่งเสริมสุขภาพตำบลบ้านสวน","lat":13.354887294498468,"lon":101.00199222564697},{"id":"A00031683","name":"โรงพยาบาลส่งเสริมสุขภาพตำบลบ้านท้องคุ้ง","lat":13.38956,"lon":101.03413},{"id":"A00031728","name":"โรงพยาบาลส่งเสริมสุขภาพตำบลบ้านทับเจริญ","lat":13.19725,"lon":101.46114},{"id":"A10164375","name":"โรงพยาบาลบีเอ็มซี พลัส","lat":13.218109443209107,"lon":100.94099208712578},{"id":"A00031645","name":"โรงพยาบาลส่งเสริมสุขภาพตำบลหนองตำลึง","lat":13.41395,"lon":101.06242},{"id":"A00031674","name":"โรงพยาบาลส่งเสริมสุขภาพตำบลตลาดล่างบางพระ","lat":13.21232,"lon":100.93675},{"id":"A00019717","name":"โรงพยาบาลสมิติเวช","lat":13.1781678573384,"lon":100.932451466453},{"id":"A00019720","name":"โรงพยาบาลพนัสนิคม","lat":13.4596929550207,"lon":101.173370361328},{"id":"A10013205","name":"โรงพยาบาลสมิติเวช ศรีราชา","lat":13.179326,"lon":100.929966},{"id":"A00031680","name":"โรงพยาบาลส่งเสริมสุขภาพตำบลเหมือง","lat":13.2616,"lon":100.93876},{"id":"A00019723","name":"โรงพยาบาลชลบุรี","lat":13.3524637222327,"lon":100.98201751709},{"id":"A10108135","name":"โรงพยาบาลสมิติเวช ศรีราชา","lat":13.179179,"lon":100.928988},{"id":"A10135396","name":"โรงพยาบาลสมิติเวช ชลบุรี","lat":13.345213028591724,"lon":100.97605928778648},{"id":"A00019740","name":"โรงพยาบาลพญาไท ศรีราชา","lat":13.1688140000006,"lon":100.928102000002},{"id":"A00031696","name":"โรงพยาบาลส่งเสริมสุขภาพตำบลนาวังหิน (บ้านน้ำซับ)","lat":13.461949,"lon":101.250885},{"id":"A00019726","name":"โรงพยาบาลชลเวช","lat":13.3627202366124,"lon":100.986233353187},{"id":"A10335133","name":"โรงพยาบาลจุฬารัตน์ ชลเวช","lat":13.362901478998166,"lon":100.98631873726845},{"id":"A00019724","name":"โรงพยาบาลเอกชล","lat":13.3539905548133,"lon":100.976707458496},{"id":"A00031702","name":"โรงพยาบาลส่งเสริมสุขภาพตำบลหนองชุมเห็ด","lat":13.37505,"lon":101.41031},{"id":"A10060547","name":"โรงพยาบาลส่งเสริมสุขภาพตำบลหน้าพระธาตุ","lat":13.46363339885039,"lon":101.14325141988927},{"id":"A00031641","name":"โรงพยาบาลส่งเสริมสุขภาพตำบลแสนสุข","lat":13.28291,"lon":100.93681},{"id":"A10117202","name":"โรงพยาบาลเอกชล 2","lat":13.317276313870384,"lon":100.94894617795944},{"id":"A00019736","name":"โรงพยาบาลอีสเทิร์น","lat":13.3183720000007,"lon":100.949153000002},{"id":"A00031729","name":"โรงพยาบาลส่งเสริมสุขภาพตำบลชากนา","lat":13.07711514686928,"lon":101.4608846604824},{"id":"A00031663","name":"โรงพยาบาลส่งเสริมสุขภาพตำบลเสม็ด","lat":13.32852,"lon":100.95348},{"id":"A00019728","name":"โรงพยาบาลสมเด็จพระบรมราชเทวี  ณ ศรีราชา","lat":13.160887,"lon":100.919195},{"id":"A00031675","name":"โรงพยาบาลส่งเสริมสุขภาพตำบลดอนหัวฬ่อ","lat":13.4212148429298,"lon":101.03398066628},{"id":"A00031678","name":"โรงพยาบาลส่งเสริมสุขภาพตำบลหนองไม้แดง","lat":13.4110672396083,"lon":101.020242703786},{"id":"A00031640","name":"โรงพยาบาลส่งเสริมสุขภาพตำบลเขาไม้แก้ว","lat":12.950408395252701,"lon":101.04572027921677},{"id":"A10168486","name":"โรงพยาบาลค่ายนวมินทราชินี","lat":13.386343592297104,"lon":100.99017307162285},{"id":"A10135933","name":"โรงพยาบาลส่งเสริมสุขภาพตำบลบ้านเก่า","lat":13.446327358893482,"lon":101.06443002820015},{"id":"A00031676","name":"โรงพยาบาลส่งเสริมสุขภาพตำบลบางทราย","lat":13.3855828775917,"lon":100.986862914693},{"id":"A10135926","name":"โรงพยาบาลส่งเสริมสุขภาพตำบลตะเคียนเตี้ย","lat":13.013809066031474,"lon":100.97130239009857},{"id":"A10146906","name":"โรงพยาบาลมะเร็งชลบุรี","lat":13.344343969816865,"lon":100.95318138599396},{"id":"A00019729","name":"โรงพยาบาลแหลมฉบัง (เดิมชื่อโรงพยาบาลอ่าวอุดม)","lat":13.1159687181097,"lon":100.918968088896},{"id":"A00019722","name":"โรงพยาบาลมหาวิทยาลัยบูรพา","lat":13.284643,"lon":100.922693},{"id":"A00031658","name":"โรงพยาบาลส่งเสริมสุขภาพตำบลบ้านปึก","lat":13.31031,"lon":100.93154},{"id":"A00019730","name":"โรงพยาบาลพานทอง","lat":13.4689409029034,"lon":101.098687403308},{"id":"A00031703","name":"โรงพยาบาลส่งเสริมสุขภาพตำบลบ้านปรกฟ้า","lat":13.41365,"lon":101.39814},{"id":"A00031727","name":"โรงพยาบาลส่งเสริมสุขภาพตำบลคลองตะเคียน","lat":13.1410354336568,"lon":101.498375823557},{"id":"A00031701","name":"โรงพยาบาลส่งเสริมสุขภาพตำบลบ้านคลองโอ่ง","lat":13.35414,"lon":101.45573},{"id":"A00019718","name":"โรงพยาบาลแหลมฉบังอินเตอร์เนชั่นแนล","lat":13.087689123883,"lon":100.917511258789},{"id":"A10168434","name":"โรงพยาบาลวิภาราม อมตะนคร","lat":13.42116657862008,"lon":101.00281968712807},{"id":"A00031695","name":"โรงพยาบาลส่งเสริมสุขภาพตำบลหนองเหียง","lat":13.48243,"lon":101.28916},{"id":"A00031706","name":"โรงพยาบาลส่งเสริมสุขภาพตำบลบ้านไร่เสธ์","lat":13.45677,"lon":101.35629},{"id":"A00031700","name":"โรงพยาบาลส่งเสริมสุขภาพตำบลบ้านธรรมรัตน์","lat":13.31142,"lon":101.48589},{"id":"A00031659","name":"โรงพยาบาลส่งเสริมสุขภาพตำบลอ่างศิลา","lat":13.33841,"lon":100.92719},{"id":"A00031974","name":"โรงพยาบาลส่งเสริมสุขภาพตำบลไร่หลักทอง","lat":13.5037290000006,"lon":101.175910000003},{"id":"A00031642","name":"โรงพยาบาลส่งเสริมสุขภาพตำบลคลองตำหรุ","lat":13.43296,"lon":101.00159},{"id":"A00031756","name":"โรงพยาบาลส่งเสริมสุขภาพตำบลวัดโบสถ์","lat":13.503090823947783,"lon":101.15979596972466},{"id":"A00031755","name":"โรงพยาบาลส่งเสริมสุขภาพตำบลวัดหลวง","lat":13.50492,"lon":101.16413},{"id":"A10135943","name":"โรงพยาบาลส่งเสริมสุขภาพตำบลหนองปรือ","lat":13.506070520271185,"lon":101.23709052801132},{"id":"A00031684","name":"โรงพยาบาลส่งเสริมสุขภาพตำบลบ้านโรงโป๊ะ","lat":13.016726427798,"lon":100.930206844684},{"id":"A10135924","name":"โรงพยาบาลส่งเสริมสุขภาพตำบลบ้านหนองหัวแรด","lat":12.995354429641953,"lon":100.94128713011742},{"id":"A00031754","name":"โรงพยาบาลส่งเสริมสุขภาพตำบลหัวถนน","lat":13.51868,"lon":101.20206},{"id":"A00031757","name":"โรงพยาบาลส่งเสริมสุขภาพตำบลโคกเพลาะ","lat":13.51497,"lon":101.13006},{"id":"A00031656","name":"โรงพยาบาลส่งเสริมสุขภาพตำบลโป่ง","lat":12.9456071853669,"lon":100.978096008301},{"id":"A00031961","name":"โรงพยาบาลส่งเสริมสุขภาพตำบลหน้าประดู่","lat":13.50367,"lon":101.08303},{"id":"A00031726","name":"โรงพยาบาลส่งเสริมสุขภาพตำบลบ้านคลองตาเพชร","lat":13.245274317392377,"lon":101.53356447815895},{"id":"A00021427","name":"โรงพยาบาลส่งเสริมสุขภาพตำบลบางนาง","lat":13.50693,"lon":101.05554},{"id":"A00031722","name":"โรงพยาบาลส่งเสริมสุขภาพตำบลบ้านอ่างกระพงศ์","lat":13.36143,"lon":101.51349},{"id":"A00031831","name":"โรงพยาบาลส่งเสริมสุขภาพตำบลบ้านมาบประชัน","lat":12.94272,"lon":100.9453},{"id":"A00031994","name":"โรงพยาบาลส่งเสริมสุขภาพตำบลบ้านหนองตาอุ่น","lat":12.91842,"lon":100.96906},{"id":"A00031643","name":"โรงพยาบาลส่งเสริมสุขภาพตำบลโคกขี้หนอน","lat":13.5532579422035,"lon":101.126640319824},{"id":"A00019737","name":"โรงพยาบาลบางละมุง","lat":12.9668380000006,"lon":100.906103000002},{"id":"A10135935","name":"โรงพยาบาลส่งเสริมสุขภาพตำบลเกาะลอย","lat":13.547057449970668,"lon":101.08375534415245},{"id":"A10135940","name":"โรงพยาบาลส่งเสริมสุขภาพตำบลสระสี่เหลี่ยม","lat":13.566672192905493,"lon":101.22678279876709},{"id":"A00031724","name":"โรงพยาบาลส่งเสริมสุขภาพตำบลบ้านเขาชอางค์","lat":13.20181,"lon":101.57855},{"id":"A10135600","name":"โรงพยาบาลส่งเสริมสุขภาพตำบลบ้านหนองม่วง","lat":13.080185,"lon":101.562905},{"id":"A00019721","name":"โรงพยาบาลกรุงเทพพัทยา","lat":12.9534120559724,"lon":100.906707763672},{"id":"A00031748","name":"โรงพยาบาลส่งเสริมสุขภาพตำบลหนองปรือ(หนองสมอ)","lat":12.92938,"lon":100.92426},{"id":"A10135936","name":"โรงพยาบาลส่งเสริมสุขภาพตำบลบางหัก","lat":13.54765197843089,"lon":101.0580450296402},{"id":"A10078123","name":"โรงพยาบาลส่งเสริมสุขภาพตำบลบ้านตาลหมัน","lat":12.902201845054512,"lon":100.94222588922133},{"id":"A10073991","name":"โรงพยาบาลส่งเสริมสุขภาพตำบลท่าข้าม","lat":13.579611558773328,"lon":101.16256466589833},{"id":"A00019733","name":"โรงพยาบาลเกาะสีชัง","lat":13.1637519552016,"lon":100.807187450852},{"id":"A00019738","name":"โรงพยาบาลพัทยาอินเตอร์เนชั่นแนลฮอสพิทอล","lat":12.9446550000006,"lon":100.887942000002},{"id":"A00019725","name":"โรงพยาบาลพัทยาเมโมเรียล","lat":12.9358071470217,"lon":100.886664601226},{"id":"A10498553","name":"โรงพยาบาลเมืองพัทยา","lat":12.92767875585601,"lon":100.8849111199379},{"id":"A10379061","name":"โรงพยาบาลเมืองพัทยา","lat":12.927600329133174,"lon":100.88491648435593},{"id":"A10379508","name":"โรงพยาบาลเมืองพัทยา","lat":12.926467060237552,"lon":100.88517263531685},{"id":"A00031689","name":"โรงพยาบาลส่งเสริมสุขภาพตำบลห้วยใหญ่","lat":12.86579,"lon":100.94265},{"id":"A00031723","name":"โรงพยาบาลส่งเสริมสุขภาพตำบลบ้านเขาใหญ่","lat":13.25054,"lon":101.62641},{"id":"A00031750","name":"โรงพยาบาลส่งเสริมสุขภาพตำบลบ้านหนองพังแค","lat":12.88805,"lon":100.89821},{"id":"A00031746","name":"โรงพยาบาลส่งเสริมสุขภาพตำบลชากแง้ว","lat":12.830741562370955,"lon":100.96380561590195},{"id":"A00019734","name":"โรงพยาบาลวัดญาณสังวราราม","lat":12.7917823605252,"lon":100.956569023986},{"id":"A00031664","name":"โรงพยาบาลส่งเสริมสุขภาพตำบลนาจอมเทียน","lat":12.811681006684799,"lon":100.91402515769005},{"id":"A10135928","name":"โรงพยาบาลส่งเสริมสุขภาพตำบลบ้านเกาะล้าน","lat":12.924897206359244,"lon":100.78890278935432},{"id":"A10135949","name":"โรงพยาบาลส่งเสริมสุขภาพตำบลบ้านโค้งวันเพ็ญ","lat":12.748494693573733,"lon":100.93849897384644},{"id":"A10573407","name":"คลีนิคโรงพยาบาลกรุงเทพพัทยา สาขาบางเสร่","lat":12.76288930585876,"lon":100.90548500418663},{"id":"A00031677","name":"โรงพยาบาลส่งเสริมสุขภาพตำบลบางเสร่","lat":12.760292973343958,"lon":100.90046793222427},{"id":"A00019735","name":"โรงพยาบาลสัตหีบ","lat":12.697461490964,"lon":100.974230039429},{"id":"A00019741","name":"โรงพยาบาลสมเด็จพระนางเจ้าสิริกิติ์","lat":12.6884450000005,"lon":100.979311000002},{"id":"A00031753","name":"โรงพยาบาลส่งเสริมสุขภาพตำบลเขาคันธมาทน์","lat":12.72084,"lon":100.90075},{"id":"A00031682","name":"โรงพยาบาลส่งเสริมสุขภาพตำบลบ้านเตาถ่าน","lat":12.709110361031776,"lon":100.88847443461418},{"id":"A00019739","name":"โรงพยาบาลอาภากรเกียรติวงศ์","lat":12.6620610000005,"lon":100.895870000002},{"id":"A10071516","name":"โรงพยาบาลส่งเสริมสุขภาพตำบล บ้านช่องแสมสาร","lat":12.600858065269156,"lon":100.95821118439564}]