[
	{
		"id": "A10123359",
		"name": "ท็อปส์ เดลี่ (เยาวราช ภูเก็ต)",
		"lat": 7.901814688924773,
		"lon": 98.37939664721489
	},
	{
		"id": "A10036942",
		"name": "ท็อปส์ มาร์เก็ต เซ็นทรัล ภูเก็ต",
		"lat": 7.89030685069215,
		"lon": 98.3677464586658
	},
	{
		"id": "A10123111",
		"name": "ท็อปส์ เดลี่ (คาลเท็กซ์ งานทวี ภูเก็ต)",
		"lat": 7.890191280282613,
		"lon": 98.39032933115959
	},
	{
		"id": "A10123113",
		"name": "ท็อปส์ เดลี่ (ไลม์ไลท์ อเวนิว ภูเก็ต)",
		"lat": 7.886492975197494,
		"lon": 98.3920969069004
	},
	{
		"id": "A10324746",
		"name": "ท็อปส์ มาร์เก็ต สาขาโรบินสัน ภูเก็ต",
		"lat": 7.877627004315414,
		"lon": 98.3944183588028
	}
]
