[
	{
		"id": "A00132157",
		"name": "ท่ารถเมล์ค่ายภาณุรังษี",
		"lat": 13.5397650000008,
		"lon": 99.819158
	},
	{ "id": "A00131659", "name": "สถานีบ้านกล้วย", "lat": 13.5884494781538, "lon": 99.8154983520508 },
	{
		"id": "A10072607",
		"name": "คิวรถตู้ บิ๊กซีราชบุรี",
		"lat": 13.550985741304817,
		"lon": 99.82213272254911
	},
	{
		"id": "A10057302",
		"name": "สถานีรถไฟราชบุรี",
		"lat": 13.530518270255202,
		"lon": 99.8238278786463
	},
	{ "id": "A00131660", "name": "สถานีราชบุรี", "lat": 13.5305795669598, "lon": 99.8238906860352 },
	{ "id": "A00131661", "name": "สถานีบ้านคูบัว", "lat": 13.4914503097576, "lon": 99.8283996582032 },
	{
		"id": "A00131665",
		"name": "สำนักงานขนส่งผู้โดยสาร จังหวัดราชบุรี",
		"lat": 13.561853354648,
		"lon": 99.8376346463288
	},
	{
		"id": "A00131849",
		"name": "สำนักงานขนส่งจังหวัดราชบุรี",
		"lat": 13.599967002873,
		"lon": 99.8330001831055
	},
	{
		"id": "A00131658",
		"name": "สถานีเจ็ดเสมียน",
		"lat": 13.6363296508833,
		"lon": 99.8212432861329
	},
	{ "id": "A00131662", "name": "สถานีบ่อตะคร้อ", "lat": 13.4412803649943, "lon": 99.8349380493164 },
	{ "id": "A00131663", "name": "สถานีปากท่อ", "lat": 13.3747100830118, "lon": 99.8434829711914 },
	{
		"id": "A00131874",
		"name": "สำนักงานขนส่งอำเภอปากท่อ",
		"lat": 13.3740910711901,
		"lon": 99.8445547805713
	},
	{ "id": "A00131657", "name": "สถานีโพธาราม", "lat": 13.6936902999923, "lon": 99.8507232666016 },
	{ "id": "A00131656", "name": "สถานีคลองตาคด", "lat": 13.7339696884201, "lon": 99.8499069213868 },
	{ "id": "A00131655", "name": "สถานีนครชุมน์", "lat": 13.7659101486252, "lon": 99.8553466796876 },
	{
		"id": "A10093436",
		"name": "ท่าเรือโค้ก 2",
		"lat": 13.514405648118446,
		"lon": 99.97225195169449
	},
	{ "id": "A00131654", "name": "สถานีบ้านโป่ง", "lat": 13.8108797073411, "lon": 99.8756713867188 },
	{ "id": "A00131666", "name": "สถานีรถไฟบ้านโป่ง", "lat": 13.810908, "lon": 99.875653 },
	{
		"id": "A00131850",
		"name": "สำนักงานขนส่งอำเภอบ้านโป่ง",
		"lat": 13.8325214621531,
		"lon": 99.8651186908271
	},
	{
		"id": "A00131664",
		"name": "สถานีสระโกสินารายณ์",
		"lat": 13.8503103256273,
		"lon": 99.8495483398438
	},
	{
		"id": "A00131851",
		"name": "สำนักงานขนส่งอำเภอบ้านโป่ง",
		"lat": 13.8062520000009,
		"lon": 99.9079270000001
	},
	{
		"id": "A00131653",
		"name": "ชุมทางหนองปลาดุก",
		"lat": 13.8178701400804,
		"lon": 99.9111785888672
	},
	{ "id": "A00131237", "name": "สถานีคลองบางตาล", "lat": 13.8212404251146, "lon": 99.959083557129 }
]
